$GPGSV,3,1,12,09,82,138,19,07,62,238,13,23,48,064,36,30,35,270,19*73
$GPGSV,3,2,12,193,26,354,24,16,23,138,17,08,22,064,23,27,22,097,*4A
$GPGSV,3,3,12,05,09,218,,03,05,011,,28,04,331,,44,00,276,*77
$GPRMC,185132.000,A,3745.5274,S,14459.9666,E,1.28,124.66,280116,,,A*7C
$GPVTG,124.66,T,,M,1.28,N,2.38,K,A*38
$GPGGA,185133.000,3745.5270,S,14459.9662,E,1,5,1.70,85.7,M,-3.9,M,,*61
$GPGSA,A,3,09,08,16,07,23,,,,,,,,1.95,1.70,0.96*06
$GPRMC,185133.000,A,3745.5270,S,14459.9662,E,1.26,122.38,280116,,,A*7E
$GPVTG,122.38,T,,M,1.26,N,2.33,K,A*30
$GPGGA,185134.000,3745.5274,S,14459.9658,E,1,5,1.70,85.7,M,-3.9,M,,*6B
$GPGSA,A,3,09,08,16,07,23,,,,,,,,1.95,1.70,0.96*06
$GPRMC,185134.000,A,3745.5274,S,14459.9658,E,1.06,163.52,280116,,,A*7F
$GPVTG,163.52,T,,M,1.06,N,1.96,K,A*37
$GPGGA,185135.000,3745.5253,S,14459.9635,E,1,5,1.70,85.7,M,-3.9,M,,*64
$GPGSA,A,3,09,08,16,07,23,,,,,,,,1.95,1.70,0.96*06
$GPRMC,185135.000,A,3745.5253,S,14459.9635,E,1.00,180.95,280116,,,A*70
$GPVTG,180.95,T,,M,1.00,N,1.85,K,A*35
$GPGGA,185136.000,3745.5241,S,14459.9622,E,1,5,1.70,85.7,M,-3.9,M,,*62
$GPGSA,A,3,09,08,16,07,23,,,,,,,,1.95,1.70,0.96*06
$GPRMC,185136.000,A,3745.5241,S,14459.9622,E,0.75,179.92,280116,,,A*74
$GPVTG,179.92,T,,M,0.75,N,1.40,K,A*3E
$GPGGA,185137.000,3745.5241,S,14459.9620,E,1,5,1.70,85.7,M,-3.9,M,,*61
$GPGSA,A,3,09,08,16,07,23,,,,,,,,1.95,1.70,0.96*06
$GPGSV,3,1,12,09,82,138,20,07,62,238,14,23,48,064,35,30,35,270,17*73
$GPGSV,3,2,12,193,26,354,25,16,23,138,17,08,22,064,23,27,22,097,*4B
$GPGSV,3,3,12,05,09,218,,03,05,011,,28,04,331,,40,-1,275,*6C
$GPRMC,185137.000,A,3745.5241,S,14459.9620,E,0.72,146.47,280116,,,A*74
$GPVTG,146.47,T,,M,0.72,N,1.34,K,A*3E
$GPGGA,185138.000,3745.5240,S,14459.9617,E,1,5,1.70,85.7,M,-3.9,M,,*6B
$GPGSA,A,3,09,08,16,07,23,,,,,,,,1.95,1.70,0.96*06
$GPRMC,185138.000,A,3745.5240,S,14459.9617,E,0.90,109.09,280116,,,A*73
$GPVTG,109.09,T,,M,0.90,N,1.67,K,A*35
$GPGGA,185139.000,3745.5248,S,14459.9619,E,1,5,1.70,85.7,M,-3.9,M,,*6C
$GPGSA,A,3,09,08,16,07,23,,,,,,,,1.95,1.70,0.96*06
$GPRMC,185139.000,A,3745.5248,S,14459.9619,E,0.88,109.65,280116,,,A*77
$GPVTG,109.65,T,,M,0.88,N,1.62,K,A*33
$GPGGA,185140.000,3745.5251,S,14459.9614,E,1,5,1.70,85.7,M,-3.9,M,,*67
$GPGSA,A,3,09,08,16,07,23,,,,,,,,1.95,1.70,0.96*06
$GPRMC,185140.000,A,3745.5251,S,14459.9614,E,0.65,154.23,280116,,,A*75
$GPVTG,154.23,T,,M,0.65,N,1.21,K,A*3D
$GPGGA,185141.000,3745.5249,S,14459.9600,E,1,5,1.70,85.7,M,-3.9,M,,*6A
$GPGSA,A,3,09,08,16,07,23,,,,,,,,1.95,1.70,0.96*06
$GPRMC,185141.000,A,3745.5249,S,14459.9600,E,1.00,159.75,280116,,,A*74
$GPVTG,159.75,T,,M,1.00,N,1.84,K,A*3E
$GPGGA,185142.000,3745.5243,S,14459.9588,E,1,5,1.70,85.7,M,-3.9,M,,*60
$GPGSA,A,3,09,08,16,07,23,,,,,,,,1.95,1.70,0.96*06
$GPGSV,3,1,12,09,82,138,22,07,62,237,16,23,48,064,35,30,35,270,17*7C
$GPGSV,3,2,12,193,26,354,25,16,23,138,19,08,22,064,24,27,22,097,*42
$GPGSV,3,3,12,05,09,218,,03,05,011,,28,04,331,,48,-2,085,*6A
$GPRMC,185142.000,A,3745.5243,S,14459.9588,E,1.01,166.10,280116,,,A*70
$GPVTG,166.10,T,,M,1.01,N,1.88,K,A*3C
$GPGGA,185143.000,3745.5244,S,14459.9586,E,1,5,1.70,85.7,M,-3.9,M,,*68
$GPGSA,A,3,09,08,16,07,23,,,,,,,,1.95,1.70,0.96*06
$GPRMC,185143.000,A,3745.5244,S,14459.9586,E,0.35,166.10,280116,,,A*7E
$GPVTG,166.10,T,,M,0.35,N,0.65,K,A*38
$GPGGA,185144.000,3745.5246,S,14459.9585,E,1,5,1.70,85.7,M,-3.9,M,,*6E
$GPGSA,A,3,09,08,16,07,23,,,,,,,,1.95,1.70,0.96*06
$GPRMC,185144.000,A,3745.5246,S,14459.9585,E,0.77,159.22,280116,,,A*73
$GPVTG,159.22,T,,M,0.77,N,1.42,K,A*37
$GPGGA,185145.000,3745.5248,S,14459.9585,E,1,5,1.70,85.7,M,-3.9,M,,*61
$GPGSA,A,3,09,08,16,07,23,,,,,,,,1.95,1.70,0.96*06
$GPRMC,185145.000,A,3745.5248,S,14459.9585,E,1.02,152.42,280116,,,A*72
$GPVTG,152.42,T,,M,1.02,N,1.89,K,A*3E
$GPGGA,185146.000,3745.5254,S,14459.9584,E,1,5,1.70,85.7,M,-3.9,M,,*6E
$GPGSA,A,3,09,08,16,07,23,,,,,,,,1.95,1.70,0.96*06
$GPRMC,185146.000,A,3745.5254,S,14459.9584,E,0.72,152.10,280116,,,A*7C
$GPVTG,152.10,T,,M,0.72,N,1.34,K,A*39
$GPGGA,185147.000,3745.5257,S,14459.9581,E,1,5,1.70,85.7,M,-3.9,M,,*69
$GPGSA,A,3,09,08,16,07,23,,,,,,,,1.95,1.70,0.96*06
$GPGSV,3,1,12,09,82,136,22,07,62,237,15,23,48,064,35,30,35,270,18*7E
$GPGSV,3,2,12,193,26,354,25,16,23,138,20,08,22,064,24,27,22,097,*48
$GPGSV,3,3,12,05,09,218,,03,05,011,,28,04,331,,48,-2,085,*6A
$GPRMC,185147.000,A,3745.5257,S,14459.9581,E,0.76,150.89,280116,,,A*7D
$GPVTG,150.89,T,,M,0.76,N,1.41,K,A*3D
$GPGGA,185148.000,3745.5256,S,14459.9574,E,1,5,1.70,85.7,M,-3.9,M,,*6D
$GPGSA,A,3,09,08,16,07,23,,,,,,,,1.95,1.70,0.96*06
$GPRMC,185148.000,A,3745.5256,S,14459.9574,E,1.14,153.25,280116,,,A*79
$GPVTG,153.25,T,,M,1.14,N,2.11,K,A*3B
$GPGGA,185149.000,3745.5256,S,14459.9569,E,1,5,1.70,85.7,M,-3.9,M,,*60
$GPGSA,A,3,09,08,16,07,23,,,,,,,,1.95,1.70,0.96*06
$GPRMC,185149.000,A,3745.5256,S,14459.9569,E,1.20,158.27,280116,,,A*7A
$GPVTG,158.27,T,,M,1.20,N,2.23,K,A*34
$GPGGA,185150.000,3745.5255,S,14459.9566,E,1,5,1.70,85.7,M,-3.9,M,,*64
$GPGSA,A,3,09,08,16,07,23,,,,,,,,1.95,1.70,0.96*06
$GPRMC,185150.000,A,3745.5255,S,14459.9566,E,0.65,163.61,280116,,,A*74
$GPVTG,163.61,T,,M,0.65,N,1.21,K,A*3F
$GPGGA,185151.000,3745.5254,S,14459.9562,E,1,5,1.70,85.6,M,-3.9,M,,*61
$GPGSA,A,3,09,08,16,07,23,,,,,,,,1.95,1.70,0.96*06
$GPRMC,185151.000,A,3745.5254,S,14459.9562,E,0.30,165.58,280116,,,A*7C
$GPVTG,165.58,T,,M,0.30,N,0.55,K,A*31
$GPGGA,185152.000,3745.5251,S,14459.9562,E,1,5,1.70,85.6,M,-3.9,M,,*67
$GPGSA,A,3,09,08,16,07,23,,,,,,,,1.95,1.70,0.96*06
$GPGSV,3,1,12,09,82,136,24,07,62,237,16,23,48,064,35,30,35,270,18*7B
$GPGSV,3,2,12,193,26,354,25,16,22,138,21,08,22,064,25,27,22,097,*49
$GPGSV,3,3,12,05,09,218,,03,05,011,,28,04,331,,51,,,*40
$GPRMC,185152.000,A,3745.5251,S,14459.9562,E,0.74,162.08,280116,,,A*78
$GPVTG,162.08,T,,M,0.74,N,1.36,K,A*37
$GPGGA,185153.000,3745.5251,S,14459.9558,E,1,5,1.70,85.6,M,-3.9,M,,*6F
$GPGSA,A,3,09,08,16,07,23,,,,,,,,1.95,1.70,0.96*06
$GPRMC,185153.000,A,3745.5251,S,14459.9558,E,0.47,161.83,280116,,,A*70
$GPVTG,161.83,T,,M,0.47,N,0.87,K,A*3C
$GPGGA,185154.000,3745.5251,S,14459.9555,E,1,5,1.70,85.7,M,-3.9,M,,*64
$GPGSA,A,3,09,08,16,07,23,,,,,,,,1.95,1.70,0.96*06
$GPRMC,185154.000,A,3745.5251,S,14459.9555,E,0.27,161.18,280116,,,A*7E
$GPVTG,161.18,T,,M,0.27,N,0.51,K,A*33
$GPGGA,185155.000,3745.5252,S,14459.9549,E,1,5,1.70,85.6,M,-3.9,M,,*6A
$GPGSA,A,3,09,08,16,07,23,,,,,,,,1.95,1.70,0.96*06
$GPRMC,185155.000,A,3745.5252,S,14459.9549,E,0.61,163.69,280116,,,A*77
$GPVTG,163.69,T,,M,0.61,N,1.13,K,A*32
$GPGGA,185156.000,3745.5253,S,14459.9540,E,1,5,1.70,85.6,M,-3.9,M,,*61
$GPGSA,A,3,09,08,16,07,23,,,,,,,,1.95,1.70,0.96*06
$GPRMC,185156.000,A,3745.5253,S,14459.9540,E,0.99,168.18,280116,,,A*76
$GPVTG,168.18,T,,M,0.99,N,1.84,K,A*36
$GPGGA,185157.000,3745.5251,S,14459.9538,E,1,5,1.70,85.6,M,-3.9,M,,*6D
$GPGSA,A,3,09,08,16,07,23,,,,,,,,1.95,1.70,0.96*06
$GPGSV,3,1,12,09,82,136,21,07,62,237,17,23,48,064,35,30,35,270,*76
$GPGSV,3,2,12,193,26,354,25,16,22,138,21,08,22,064,24,27,22,097,*48
$GPGSV,3,3,12,05,09,218,,03,05,011,,28,04,331,,39,,,*4E
$GPRMC,185157.000,A,3745.5251,S,14459.9538,E,0.59,173.43,280116,,,A*72
$GPVTG,173.43,T,,M,0.59,N,1.09,K,A*3B
$GPGGA,185158.000,3745.5249,S,14459.9539,E,1,5,1.70,85.6,M,-3.9,M,,*6A
$GPGSA,A,3,09,08,16,07,23,,,,,,,,1.95,1.70,0.96*06
$GPRMC,185158.000,A,3745.5249,S,14459.9539,E,0.38,174.98,280116,,,A*73
$GPVTG,174.98,T,,M,0.38,N,0.70,K,A*32
$GPGGA,185159.000,3745.5247,S,14459.9540,E,1,5,1.70,85.6,M,-3.9,M,,*6B
$GPGSA,A,3,09,08,16,07,23,,,,,,,,1.95,1.70,0.96*06
$GPRMC,185159.000,A,3745.5247,S,14459.9540,E,0.91,75.89,280116,,,A*41
$GPVTG,75.89,T,,M,0.91,N,1.69,K,A*08
$GPGGA,185200.000,3745.5244,S,14459.9541,E,1,5,1.70,85.6,M,-3.9,M,,*66
$GPGSA,A,3,09,08,16,07,23,,,,,,,,1.95,1.70,0.96*06
$GPRMC,185200.000,A,3745.5244,S,14459.9541,E,1.08,74.39,280116,,,A*47
$GPVTG,74.39,T,,M,1.08,N,1.99,K,A*0C
$GPGGA,185201.000,3745.5244,S,14459.9541,E,1,5,1.70,85.6,M,-3.9,M,,*67
$GPGSA,A,3,09,08,16,07,23,,,,,,,,1.95,1.70,0.96*06
$GPRMC,185201.000,A,3745.5244,S,14459.9541,E,0.84,75.03,280116,,,A*4B
$GPVTG,75.03,T,,M,0.84,N,1.56,K,A*02
$GPGGA,185202.000,3745.5243,S,14459.9539,E,1,5,1.70,85.6,M,-3.9,M,,*6C
$GPGSA,A,3,09,08,16,07,23,,,,,,,,1.95,1.70,0.96*06
$GPGSV,3,1,12,09,82,136,20,07,62,237,18,23,48,064,36,30,35,270,*7B
$GPGSV,3,2,12,193,26,354,25,16,22,138,21,08,22,064,24,27,22,097,*48
$GPGSV,3,3,12,05,09,218,,03,05,011,,28,04,331,,37,,,*40
$GPRMC,185202.000,A,3745.5243,S,14459.9539,E,0.53,75.03,280116,,,A*4A
$GPVTG,75.03,T,,M,0.53,N,0.97,K,A*04
$GPGGA,185203.000,3745.5244,S,14459.9536,E,1,5,1.70,85.6,M,-3.9,M,,*65
$GPGSA,A,3,09,08,16,07,23,,,,,,,,1.95,1.70,0.96*06
$GPRMC,185203.000,A,3745.5244,S,14459.9536,E,0.33,75.03,280116,,,A*45
$GPVTG,75.03,T,,M,0.33,N,0.62,K,A*08
$GPGGA,185204.000,3745.5246,S,14459.9535,E,1,5,1.70,85.6,M,-3.9,M,,*63
$GPGSA,A,3,09,08,16,07,23,,,,,,,,1.95,1.70,0.96*06
$GPRMC,185204.000,A,3745.5246,S,14459.9535,E,0.34,75.03,280116,,,A*44
$GPVTG,75.03,T,,M,0.34,N,0.63,K,A*0E
$GPGGA,185205.000,3745.5247,S,14459.9534,E,1,5,1.70,85.5,M,-3.9,M,,*61
$GPGSA,A,3,09,08,16,07,23,,,,,,,,1.95,1.70,0.96*06
$GPRMC,185205.000,A,3745.5247,S,14459.9534,E,0.38,75.15,280116,,,A*4E
$GPVTG,75.15,T,,M,0.38,N,0.70,K,A*07
$GPGGA,185206.000,3745.5249,S,14459.9535,E,1,5,1.70,85.5,M,-3.9,M,,*6D
$GPGSA,A,3,09,08,16,07,23,,,,,,,,1.95,1.70,0.96*06
$GPRMC,185206.000,A,3745.5249,S,14459.9535,E,0.42,75.09,280116,,,A*42
$GPVTG,75.09,T,,M,0.42,N,0.77,K,A*00
$GPGGA,185207.000,3745.5250,S,14459.9535,E,1,5,1.70,85.5,M,-3.9,M,,*64
$GPGSA,A,3,09,08,16,07,23,,,,,,,,1.95,1.70,0.96*06
$GPGSV,3,1,12,09,82,136,20,07,62,237,19,23,48,064,36,30,35,270,21*79
$GPGSV,3,2,12,193,26,354,26,16,22,138,21,08,22,064,24,27,22,097,*4B
$GPGSV,3,3,12,05,09,218,,03,05,011,,28,04,331,,37,,,*40
$GPRMC,185207.000,A,3745.5250,S,14459.9535,E,0.38,75.09,280116,,,A*46
$GPVTG,75.09,T,,M,0.38,N,0.71,K,A*0B
$GPGGA,185208.000,3745.5251,S,14459.9535,E,1,5,1.70,85.5,M,-3.9,M,,*6A
$GPGSA,A,3,09,08,16,07,23,,,,,,,,1.95,1.70,0.96*06
$GPRMC,185208.000,A,3745.5251,S,14459.9535,E,0.40,75.09,280116,,,A*47
$GPVTG,75.09,T,,M,0.40,N,0.75,K,A*00
$GPGGA,185209.000,3745.5252,S,14459.9534,E,1,5,1.70,85.5,M,-3.9,M,,*69
$GPGSA,A,3,09,08,16,07,23,,,,,,,,1.95,1.70,0.96*06
$GPRMC,185209.000,A,3745.5252,S,14459.9534,E,0.36,75.09,280116,,,A*45
$GPVTG,75.09,T,,M,0.36,N,0.66,K,A*03
$GPGGA,185210.000,3745.5252,S,14459.9533,E,1,5,1.70,85.5,M,-3.9,M,,*66
$GPGSA,A,3,09,08,16,07,23,,,,,,,,1.95,1.70,0.96*06
$GPRMC,185210.000,A,3745.5252,S,14459.9533,E,0.43,75.09,280116,,,A*48
$GPVTG,75.09,T,,M,0.43,N,0.79,K,A*0F
$GPGGA,185211.000,3745.5253,S,14459.9532,E,1,5,1.70,85.5,M,-3.9,M,,*67
$GPGSA,A,3,09,08,16,07,23,,,,,,,,1.95,1.70,0.96*06
$GPRMC,185211.000,A,3745.5253,S,14459.9532,E,0.56,75.09,280116,,,A*4D
$GPVTG,75.09,T,,M,0.56,N,1.03,K,A*07
$GPGGA,185212.000,3745.5253,S,14459.9530,E,1,6,1.59,85.5,M,-3.9,M,,*6E
$GPGSA,A,3,09,08,27,16,07,23,,,,,,,1.86,1.59,0.96*0A
$GPGSV,3,1,12,09,82,136,20,07,62,237,20,23,48,064,36,30,35,270,22*70
$GPGSV,3,2,12,193,26,354,26,16,22,138,20,08,22,064,25,27,22,097,21*48
$GPGSV,3,3,12,05,09,218,,03,05,011,,28,04,331,,33,,,*44
$GPRMC,185212.000,A,3745.5253,S,14459.9530,E,0.84,259.17,280116,,,A*70
$GPVTG,259.17,T,,M,0.84,N,1.55,K,A*38
$GPGGA,185213.000,3745.5254,S,14459.9523,E,1,6,1.59,85.5,M,-3.9,M,,*6A
$GPGSA,A,3,09,08,27,16,07,23,,,,,,,1.86,1.59,0.96*0A
$GPRMC,185213.000,A,3745.5254,S,14459.9523,E,1.02,253.73,280116,,,A*73
$GPVTG,253.73,T,,M,1.02,N,1.89,K,A*3E
$GPGGA,185214.000,3745.5254,S,14459.9515,E,1,6,1.59,85.5,M,-3.9,M,,*68
$GPGSA,A,3,09,08,27,16,07,23,,,,,,,1.86,1.59,0.96*0A
$GPRMC,185214.000,A,3745.5254,S,14459.9515,E,1.18,254.62,280116,,,A*7D
$GPVTG,254.62,T,,M,1.18,N,2.19,K,A*38
$GPGGA,185215.000,3745.5251,S,14459.9504,E,1,6,1.59,85.6,M,-3.9,M,,*6F
$GPGSA,A,3,09,08,27,16,07,23,,,,,,,1.86,1.59,0.96*0A
$GPRMC,185215.000,A,3745.5251,S,14459.9504,E,1.21,256.77,280116,,,A*75
$GPVTG,256.77,T,,M,1.21,N,2.24,K,A*3A
$GPGGA,185216.000,3745.5248,S,14459.9495,E,1,6,1.59,85.6,M,-3.9,M,,*6D
$GPGSA,A,3,09,08,27,16,07,23,,,,,,,1.86,1.59,0.96*0A
$GPRMC,185216.000,A,3745.5248,S,14459.9495,E,1.18,258.88,280116,,,A*73
$GPVTG,258.88,T,,M,1.18,N,2.19,K,A*30
$GPGGA,185217.000,3745.5244,S,14459.9487,E,1,6,1.59,85.6,M,-3.9,M,,*63
$GPGSA,A,3,09,08,27,16,07,23,,,,,,,1.86,1.59,0.96*0A
$GPGSV,3,1,12,09,82,136,23,07,62,237,20,23,48,064,35,42,46,359,*7B
$GPGSV,3,2,12,30,35,270,23,193,26,354,26,16,22,138,20,08,22,064,27*43
$GPGSV,3,3,12,27,22,097,21,05,09,218,,03,04,011,,28,04,331,*7D
$GPRMC,185217.000,A,3745.5244,S,14459.9487,E,1.12,264.28,280116,,,A*72
$GPVTG,264.28,T,,M,1.12,N,2.08,K,A*3F
$GPGGA,185218.000,3745.5240,S,14459.9481,E,1,6,1.59,85.6,M,-3.9,M,,*6E
$GPGSA,A,3,09,08,27,16,07,23,,,,,,,1.86,1.59,0.96*0A
$GPRMC,185218.000,A,3745.5240,S,14459.9481,E,0.77,277.04,280116,,,A*71
$GPVTG,277.04,T,,M,0.77,N,1.44,K,A*3A
$GPGGA,185219.000,3745.5237,S,14459.9477,E,1,6,1.59,85.6,M,-3.9,M,,*66
$GPGSA,A,3,09,08,27,16,07,23,,,,,,,1.86,1.59,0.96*0A
$GPRMC,185219.000,A,3745.5237,S,14459.9477,E,0.72,282.67,280116,,,A*73
$GPVTG,282.67,T,,M,0.72,N,1.34,K,A*37
$GPGGA,185220.000,3745.5234,S,14459.9475,E,1,6,1.59,85.6,M,-3.9,M,,*6D
$GPGSA,A,3,09,08,27,16,07,23,,,,,,,1.86,1.59,0.96*0A
$GPRMC,185220.000,A,3745.5234,S,14459.9475,E,0.66,290.55,280116,,,A*7F
$GPVTG,290.55,T,,M,0.66,N,1.23,K,A*36
$GPGGA,185221.000,3745.5231,S,14459.9474,E,1,6,1.59,85.6,M,-3.9,M,,*68
$GPGSA,A,3,09,08,27,16,07,23,,,,,,,1.86,1.59,0.96*0A
$GPRMC,185221.000,A,3745.5231,S,14459.9474,E,0.59,290.55,280116,,,A*76
$GPVTG,290.55,T,,M,0.59,N,1.10,K,A*3A
$GPGGA,185222.000,3745.5229,S,14459.9473,E,1,6,1.59,85.7,M,-3.9,M,,*64
$GPGSA,A,3,09,08,27,16,07,23,,,,,,,1.86,1.59,0.96*0A
$GPGSV,3,1,12,09,82,134,26,07,62,237,20,23,48,064,35,42,46,359,*7C
$GPGSV,3,2,12,30,35,270,22,193,26,354,26,16,22,138,20,08,22,064,27*42
$GPGSV,3,3,12,27,22,097,20,05,09,218,,03,04,011,,28,04,331,*7C
$GPRMC,185222.000,A,3745.5229,S,14459.9473,E,0.55,290.55,280116,,,A*77
$GPVTG,290.55,T,,M,0.55,N,1.02,K,A*35
$GPGGA,185223.000,3745.5227,S,14459.9474,E,1,7,1.44,85.7,M,-3.9,M,,*61
$GPGSA,A,3,09,08,27,05,16,07,23,,,,,,1.67,1.44,0.85*0E
$GPRMC,185223.000,A,3745.5227,S,14459.9474,E,0.54,290.55,280116,,,A*7E
$GPVTG,290.55,T,,M,0.54,N,1.01,K,A*37
$GPGGA,185224.000,3745.5226,S,14459.9477,E,1,7,1.44,85.7,M,-3.9,M,,*64
$GPGSA,A,3,09,08,27,05,16,07,23,,,,,,1.67,1.44,0.85*0E
$GPRMC,185224.000,A,3745.5226,S,14459.9477,E,0.49,290.55,280116,,,A*77
$GPVTG,290.55,T,,M,0.49,N,0.90,K,A*32
$GPGGA,185225.000,3745.5226,S,14459.9476,E,1,7,1.44,85.7,M,-3.9,M,,*64
$GPGSA,A,3,09,08,27,05,16,07,23,,,,,,1.67,1.44,0.85*0E
$GPRMC,185225.000,A,3745.5226,S,14459.9476,E,0.37,290.55,280116,,,A*7E
$GPVTG,290.55,T,,M,0.37,N,0.69,K,A*3D
$GPGGA,185226.000,3745.5225,S,14459.9475,E,1,7,1.44,85.6,M,-3.9,M,,*66
$GPGSA,A,3,09,08,27,05,16,07,23,,,,,,1.67,1.44,0.85*0E
$GPRMC,185226.000,A,3745.5225,S,14459.9475,E,0.37,290.55,280116,,,A*7D
$GPVTG,290.55,T,,M,0.37,N,0.68,K,A*3C
$GPGGA,185227.000,3745.5225,S,14459.9474,E,1,7,1.44,85.6,M,-3.9,M,,*66
$GPGSA,A,3,09,08,27,05,16,07,23,,,,,,1.67,1.44,0.85*0E
$GPGSV,3,1,12,09,82,134,27,07,62,237,20,23,48,064,34,42,46,359,*7C
$GPGSV,3,2,12,30,35,270,21,193,26,354,26,16,22,139,20,08,22,064,28*4F
$GPGSV,3,3,12,27,22,097,20,05,09,218,16,03,04,011,,28,04,331,*7B
$GPRMC,185227.000,A,3745.5225,S,14459.9474,E,0.37,290.55,280116,,,A*7D
$GPVTG,290.55,T,,M,0.37,N,0.69,K,A*3D
$GPGGA,185228.000,3745.5224,S,14459.9473,E,1,7,1.44,85.6,M,-3.9,M,,*6F
$GPGSA,A,3,09,08,27,05,16,07,23,,,,,,1.67,1.44,0.85*0E
$GPRMC,185228.000,A,3745.5224,S,14459.9473,E,0.36,290.55,280116,,,A*75
$GPVTG,290.55,T,,M,0.36,N,0.66,K,A*33
$GPGGA,185229.000,3745.5223,S,14459.9472,E,1,7,1.44,85.6,M,-3.9,M,,*68
$GPGSA,A,3,09,08,27,05,16,07,23,,,,,,1.67,1.44,0.85*0E
$GPRMC,185229.000,A,3745.5223,S,14459.9472,E,0.34,290.55,280116,,,A*70
$GPVTG,290.55,T,,M,0.34,N,0.64,K,A*33
$GPGGA,185230.000,3745.5222,S,14459.9471,E,1,7,1.44,85.6,M,-3.9,M,,*62
$GPGSA,A,3,09,08,27,05,16,07,23,,,,,,1.67,1.44,0.85*0E
$GPRMC,185230.000,A,3745.5222,S,14459.9471,E,0.30,290.55,280116,,,A*7E
$GPVTG,290.55,T,,M,0.30,N,0.56,K,A*36
$GPGGA,185231.000,3745.5222,S,14459.9471,E,1,7,1.44,85.6,M,-3.9,M,,*63
$GPGSA,A,3,09,08,27,05,16,07,23,,,,,,1.67,1.44,0.85*0E
$GPRMC,185231.000,A,3745.5222,S,14459.9471,E,0.23,290.55,280116,,,A*7D
$GPVTG,290.55,T,,M,0.23,N,0.43,K,A*30
$GPGGA,185232.000,3745.5221,S,14459.9471,E,1,7,1.44,85.6,M,-3.9,M,,*63
$GPGSA,A,3,09,08,27,05,16,07,23,,,,,,1.67,1.44,0.85*0E
$GPGSV,3,1,12,09,82,134,27,07,62,237,20,23,48,064,34,42,46,359,*7C
$GPGSV,3,2,12,30,35,270,20,193,26,354,26,16,22,139,21,08,22,064,28*4F
$GPGSV,3,3,12,27,22,097,18,05,09,218,16,03,04,011,,28,04,331,*70
$GPRMC,185232.000,A,3745.5221,S,14459.9471,E,0.15,290.55,280116,,,A*78
$GPVTG,290.55,T,,M,0.15,N,0.29,K,A*39
$GPGGA,185233.000,3745.5221,S,14459.9470,E,1,7,1.44,85.6,M,-3.9,M,,*63
$GPGSA,A,3,09,08,27,05,16,07,23,,,,,,1.67,1.44,0.85*0E
$GPRMC,185233.000,A,3745.5221,S,14459.9470,E,0.19,290.55,280116,,,A*74
$GPVTG,290.55,T,,M,0.19,N,0.35,K,A*38
$GPGGA,185234.000,3745.5221,S,14459.9470,E,1,7,1.44,85.6,M,-3.9,M,,*64
$GPGSA,A,3,09,08,27,05,16,07,23,,,,,,1.67,1.44,0.85*0E
$GPRMC,185234.000,A,3745.5221,S,14459.9470,E,0.21,290.55,280116,,,A*78
$GPVTG,290.55,T,,M,0.21,N,0.38,K,A*3E
$GPGGA,185235.000,3745.5221,S,14459.9469,E,1,7,1.44,85.6,M,-3.9,M,,*6D
$GPGSA,A,3,09,08,27,05,16,07,23,,,,,,1.67,1.44,0.85*0E
$GPRMC,185235.000,A,3745.5221,S,14459.9469,E,0.19,290.55,280116,,,A*7A
$GPVTG,290.55,T,,M,0.19,N,0.35,K,A*38
$GPGGA,185236.000,3745.5222,S,14459.9469,E,1,7,1.44,85.6,M,-3.9,M,,*6D
$GPGSA,A,3,09,08,27,05,16,07,23,,,,,,1.67,1.44,0.85*0E
$GPRMC,185236.000,A,3745.5222,S,14459.9469,E,0.15,290.55,280116,,,A*76
$GPVTG,290.55,T,,M,0.15,N,0.28,K,A*38
$GPGGA,185237.000,3745.5222,S,14459.9468,E,1,7,1.44,85.6,M,-3.9,M,,*6D
$GPGSA,A,3,09,08,27,05,16,07,23,,,,,,1.67,1.44,0.85*0E
$GPGSV,3,1,12,09,82,134,27,07,62,237,20,23,48,063,34,42,46,359,*7B
$GPGSV,3,2,12,30,35,270,20,193,26,354,26,16,22,139,21,08,22,064,29*4E
$GPGSV,3,3,12,27,22,098,18,05,09,218,16,03,04,011,,28,04,331,*7F
$GPRMC,185237.000,A,3745.5222,S,14459.9468,E,0.14,290.55,280116,,,A*77
$GPVTG,290.55,T,,M,0.14,N,0.25,K,A*34
$GPGGA,185238.000,3745.5222,S,14459.9468,E,1,7,1.44,85.6,M,-3.9,M,,*62
$GPGSA,A,3,09,08,27,05,16,07,23,,,,,,1.67,1.44,0.85*0E
$GPRMC,185238.000,A,3745.5222,S,14459.9468,E,0.19,290.55,280116,,,A*75
$GPVTG,290.55,T,,M,0.19,N,0.34,K,A*39
$GPGGA,185239.000,3745.5223,S,14459.9468,E,1,7,1.44,85.6,M,-3.9,M,,*62
$GPGSA,A,3,09,08,27,05,16,07,23,,,,,,1.67,1.44,0.85*0E
$GPRMC,185239.000,A,3745.5223,S,14459.9468,E,0.24,290.55,280116,,,A*7B
$GPVTG,290.55,T,,M,0.24,N,0.45,K,A*31
$GPGGA,185240.000,3745.5224,S,14459.9469,E,1,7,1.44,85.6,M,-3.9,M,,*6A
$GPGSA,A,3,09,08,27,05,16,07,23,,,,,,1.67,1.44,0.85*0E
$GPRMC,185240.000,A,3745.5224,S,14459.9469,E,0.25,290.55,280116,,,A*72
$GPVTG,290.55,T,,M,0.25,N,0.47,K,A*32
$GPGGA,185241.000,3745.5224,S,14459.9469,E,1,7,1.44,85.6,M,-3.9,M,,*6B
$GPGSA,A,3,09,08,27,05,16,07,23,,,,,,1.67,1.44,0.85*0E
$GPRMC,185241.000,A,3745.5224,S,14459.9469,E,0.28,290.55,280116,,,A*7E
$GPVTG,290.55,T,,M,0.28,N,0.52,K,A*3B
$GPGGA,185242.000,3745.5225,S,14459.9469,E,1,7,1.44,85.6,M,-3.9,M,,*69
$GPGSA,A,3,09,08,27,05,16,07,23,,,,,,1.67,1.44,0.85*0E
$GPGSV,3,1,12,09,82,134,26,07,62,237,21,23,48,063,34,42,46,359,*7B
$GPGSV,3,2,12,30,35,270,20,193,26,354,27,16,22,139,21,08,22,064,28*4E
$GPGSV,3,3,12,27,22,098,16,05,09,218,16,28,05,331,,03,04,011,*70
$GPRMC,185242.000,A,3745.5225,S,14459.9469,E,0.28,290.55,280116,,,A*7C
$GPVTG,290.55,T,,M,0.28,N,0.51,K,A*38
$GPGGA,185243.000,3745.5226,S,14459.9469,E,1,7,1.44,85.6,M,-3.9,M,,*6B
$GPGSA,A,3,09,08,27,05,16,07,23,,,,,,1.67,1.44,0.85*0E
$GPRMC,185243.000,A,3745.5226,S,14459.9469,E,0.32,290.55,280116,,,A*75
$GPVTG,290.55,T,,M,0.32,N,0.59,K,A*3B
$GPGGA,185244.000,3745.5227,S,14459.9469,E,1,7,1.44,85.6,M,-3.9,M,,*6D
$GPGSA,A,3,09,08,27,05,16,07,23,,,,,,1.67,1.44,0.85*0E
$GPRMC,185244.000,A,3745.5227,S,14459.9469,E,0.31,290.55,280116,,,A*70
$GPVTG,290.55,T,,M,0.31,N,0.57,K,A*36
$GPGGA,185245.000,3745.5227,S,14459.9469,E,1,7,1.44,85.6,M,-3.9,M,,*6C
$GPGSA,A,3,09,08,27,05,16,07,23,,,,,,1.67,1.44,0.85*0E
$GPRMC,185245.000,A,3745.5227,S,14459.9469,E,0.36,290.55,280116,,,A*76
$GPVTG,290.55,T,,M,0.36,N,0.67,K,A*32
$GPGGA,185246.000,3745.5228,S,14459.9470,E,1,6,1.59,85.6,M,-3.9,M,,*65
$GPGSA,A,3,09,08,27,16,07,23,,,,,,,1.86,1.59,0.96*0A
$GPRMC,185246.000,A,3745.5228,S,14459.9470,E,0.34,290.55,280116,,,A*70
$GPVTG,290.55,T,,M,0.34,N,0.63,K,A*34
$GPGGA,185247.000,3745.5229,S,14459.9470,E,1,7,1.44,85.6,M,-3.9,M,,*68
$GPGSA,A,3,09,08,27,05,16,07,23,,,,,,1.67,1.44,0.85*0E
$GPGSV,3,1,12,09,82,134,24,07,62,237,21,23,48,063,35,42,46,359,*78
$GPGSV,3,2,12,30,35,270,20,193,25,354,26,16,22,139,21,08,22,064,28*4C
$GPGSV,3,3,12,27,22,098,17,05,09,218,15,28,05,331,,03,04,011,*72
$GPRMC,185247.000,A,3745.5229,S,14459.9470,E,0.30,290.55,280116,,,A*74
$GPVTG,290.55,T,,M,0.30,N,0.56,K,A*36
$GPGGA,185248.000,3745.5230,S,14459.9471,E,1,7,1.44,85.6,M,-3.9,M,,*6E
$GPGSA,A,3,09,08,27,05,16,07,23,,,,,,1.67,1.44,0.85*0E
$GPRMC,185248.000,A,3745.5230,S,14459.9471,E,0.32,290.55,280116,,,A*70
$GPVTG,290.55,T,,M,0.32,N,0.58,K,A*3A
$GPGGA,185249.000,3745.5231,S,14459.9471,E,1,7,1.44,85.6,M,-3.9,M,,*6E
$GPGSA,A,3,09,08,27,05,16,07,23,,,,,,1.67,1.44,0.85*0E
$GPRMC,185249.000,A,3745.5231,S,14459.9471,E,0.29,290.55,280116,,,A*7A
$GPVTG,290.55,T,,M,0.29,N,0.54,K,A*3C
$GPGGA,185250.000,3745.5232,S,14459.9471,E,1,7,1.44,85.6,M,-3.9,M,,*65
$GPGSA,A,3,09,08,27,05,16,07,23,,,,,,1.67,1.44,0.85*0E
$GPRMC,185250.000,A,3745.5232,S,14459.9471,E,0.19,290.55,280116,,,A*72
$GPVTG,290.55,T,,M,0.19,N,0.36,K,A*3B
$GPGGA,185251.000,3745.5232,S,14459.9471,E,1,7,1.44,85.6,M,-3.9,M,,*64
$GPGSA,A,3,09,08,27,05,16,07,23,,,,,,1.67,1.44,0.85*0E
$GPRMC,185251.000,A,3745.5232,S,14459.9471,E,0.13,290.55,280116,,,A*79
$GPVTG,290.55,T,,M,0.13,N,0.23,K,A*35
$GPGGA,185252.000,3745.5232,S,14459.9471,E,1,7,1.44,85.6,M,-3.9,M,,*67
$GPGSA,A,3,09,08,27,05,16,07,23,,,,,,1.67,1.44,0.85*0E
$GPGSV,3,1,12,09,82,134,23,07,62,236,21,23,48,063,35,42,46,359,*7E
$GPGSV,3,2,12,30,35,270,20,193,25,354,26,16,22,139,21,08,22,064,28*4C
$GPGSV,3,3,12,27,22,098,19,05,09,218,17,28,05,331,,03,04,011,*7E
$GPRMC,185252.000,A,3745.5232,S,14459.9471,E,0.14,290.55,280116,,,A*7D
$GPVTG,290.55,T,,M,0.14,N,0.26,K,A*37
$GPGGA,185253.000,3745.5232,S,14459.9472,E,1,7,1.44,85.6,M,-3.9,M,,*65
$GPGSA,A,3,09,08,27,05,16,07,23,,,,,,1.67,1.44,0.85*0E
$GPRMC,185253.000,A,3745.5232,S,14459.9472,E,0.15,290.55,280116,,,A*7E
$GPVTG,290.55,T,,M,0.15,N,0.28,K,A*38
$GPGGA,185254.000,3745.5232,S,14459.9472,E,1,7,1.44,85.6,M,-3.9,M,,*62
$GPGSA,A,3,09,08,27,05,16,07,23,,,,,,1.67,1.44,0.85*0E
$GPRMC,185254.000,A,3745.5232,S,14459.9472,E,0.07,290.55,280116,,,A*7A
$GPVTG,290.55,T,,M,0.07,N,0.13,K,A*33
$GPGGA,185255.000,3745.5232,S,14459.9473,E,1,7,1.44,85.6,M,-3.9,M,,*62
$GPGSA,A,3,09,08,27,05,16,07,23,,,,,,1.67,1.44,0.85*0E
$GPRMC,185255.000,A,3745.5232,S,14459.9473,E,0.13,290.55,280116,,,A*7F
$GPVTG,290.55,T,,M,0.13,N,0.25,K,A*33
$GPGGA,185256.000,3745.5233,S,14459.9472,E,1,7,1.44,85.6,M,-3.9,M,,*61
$GPGSA,A,3,09,08,27,05,16,07,23,,,,,,1.67,1.44,0.85*0E
$GPRMC,185256.000,A,3745.5233,S,14459.9472,E,0.15,290.55,280116,,,A*7A
$GPVTG,290.55,T,,M,0.15,N,0.27,K,A*37
$GPGGA,185257.000,3745.5232,S,14459.9472,E,1,7,1.44,85.6,M,-3.9,M,,*61
$GPGSA,A,3,09,08,27,05,16,07,23,,,,,,1.67,1.44,0.85*0E
$GPGSV,3,1,12,09,82,132,22,07,62,236,21,23,48,063,36,50,46,000,*76
$GPGSV,3,2,12,30,35,270,21,193,25,354,26,08,23,064,28,16,22,139,21*4C
$GPGSV,3,3,12,27,22,098,22,05,09,218,14,28,05,331,,03,04,011,*75
$GPRMC,185257.000,A,3745.5232,S,14459.9472,E,0.34,290.55,280116,,,A*79
$GPVTG,290.55,T,,M,0.34,N,0.63,K,A*34
$GPGGA,185258.000,3745.5232,S,14459.9470,E,1,7,1.44,85.6,M,-3.9,M,,*6C
$GPGSA,A,3,09,08,27,05,16,07,23,,,,,,1.67,1.44,0.85*0E
$GPRMC,185258.000,A,3745.5232,S,14459.9470,E,0.42,290.55,280116,,,A*75
$GPVTG,290.55,T,,M,0.42,N,0.78,K,A*3F
$GPGGA,185259.000,3745.5232,S,14459.9469,E,1,6,1.59,85.6,M,-3.9,M,,*68
$GPGSA,A,3,09,08,27,16,07,23,,,,,,,1.86,1.59,0.96*0A
$GPRMC,185259.000,A,3745.5232,S,14459.9469,E,0.48,290.55,280116,,,A*76
$GPVTG,290.55,T,,M,0.48,N,0.89,K,A*3B
$GPGGA,185300.000,3745.5232,S,14459.9467,E,1,7,1.44,85.6,M,-3.9,M,,*66
$GPGSA,A,3,09,08,27,05,16,07,23,,,,,,1.67,1.44,0.85*0E
$GPRMC,185300.000,A,3745.5232,S,14459.9467,E,0.28,290.55,280116,,,A*73
$GPVTG,290.55,T,,M,0.28,N,0.52,K,A*3B
$GPGGA,185301.000,3745.5232,S,14459.9466,E,1,6,1.59,85.6,M,-3.9,M,,*6B
$GPGSA,A,3,09,08,27,16,07,23,,,,,,,1.86,1.59,0.96*0A
$GPRMC,185301.000,A,3745.5232,S,14459.9466,E,0.10,290.55,280116,,,A*78
$GPVTG,290.55,T,,M,0.10,N,0.19,K,A*3F
$GPGGA,185302.000,3745.5232,S,14459.9466,E,1,7,1.44,85.6,M,-3.9,M,,*65
$GPGSA,A,3,09,08,27,05,16,07,23,,,,,,1.67,1.44,0.85*0E
$GPGSV,3,1,12,09,82,132,21,07,62,236,20,23,48,063,36,42,46,359,*78
$GPGSV,3,2,12,30,35,270,21,193,25,354,27,08,23,064,28,16,22,139,21*4D
$GPGSV,3,3,12,27,22,098,24,05,09,218,13,28,05,331,,03,04,011,*74
$GPRMC,185302.000,A,3745.5232,S,14459.9466,E,0.33,290.55,280116,,,A*7A
$GPVTG,290.55,T,,M,0.33,N,0.61,K,A*31
$GPGGA,185303.000,3745.5231,S,14459.9467,E,1,7,1.44,85.6,M,-3.9,M,,*66
$GPGSA,A,3,09,08,27,05,16,07,23,,,,,,1.67,1.44,0.85*0E
$GPRMC,185303.000,A,3745.5231,S,14459.9467,E,0.55,290.55,280116,,,A*79
$GPVTG,290.55,T,,M,0.55,N,1.01,K,A*36
$GPGGA,185304.000,3745.5230,S,14459.9468,E,1,6,1.59,85.6,M,-3.9,M,,*62
$GPGSA,A,3,09,08,27,16,07,23,,,,,,,1.86,1.59,0.96*0A
$GPRMC,185304.000,A,3745.5230,S,14459.9468,E,0.76,55.08,280116,,,A*42
$GPVTG,55.08,T,,M,0.76,N,1.40,K,A*01
$GPGGA,185305.000,3745.5229,S,14459.9468,E,1,6,1.59,85.6,M,-3.9,M,,*6B
$GPGSA,A,3,09,08,27,16,07,23,,,,,,,1.86,1.59,0.96*0A
$GPRMC,185305.000,A,3745.5229,S,14459.9468,E,0.71,59.24,280116,,,A*4E
$GPVTG,59.24,T,,M,0.71,N,1.31,K,A*02
$GPGGA,185306.000,3745.5226,S,14459.9468,E,1,6,1.59,85.6,M,-3.9,M,,*67
$GPGSA,A,3,09,08,27,16,07,23,,,,,,,1.86,1.59,0.96*0A
$GPRMC,185306.000,A,3745.5226,S,14459.9468,E,0.64,59.24,280116,,,A*46
$GPVTG,59.24,T,,M,0.64,N,1.19,K,A*0C
$GPGGA,185307.000,3745.5222,S,14459.9469,E,1,6,1.59,85.6,M,-3.9,M,,*63
$GPGSA,A,3,09,08,27,16,07,23,,,,,,,1.86,1.59,0.96*0A
$GPGSV,3,1,12,09,82,132,21,07,62,236,20,23,48,063,36,42,46,359,*78
$GPGSV,3,2,12,30,35,270,21,193,25,354,27,08,23,064,28,16,22,139,21*4D
$GPGSV,3,3,12,27,22,098,24,05,09,218,13,28,05,331,,03,04,011,*74
$GPRMC,185307.000,A,3745.5222,S,14459.9469,E,0.59,59.24,280116,,,A*4C
$GPVTG,59.24,T,,M,0.59,N,1.10,K,A*0B
$GPGGA,185308.000,3745.5221,S,14459.9469,E,1,7,1.44,85.6,M,-3.9,M,,*62
$GPGSA,A,3,09,08,27,05,16,07,23,,,,,,1.67,1.44,0.85*0E
$GPRMC,185308.000,A,3745.5221,S,14459.9469,E,0.40,59.24,280116,,,A*48
$GPVTG,59.24,T,,M,0.40,N,0.74,K,A*00
$GPGGA,185309.000,3745.5219,S,14459.9469,E,1,6,1.59,85.6,M,-3.9,M,,*65
$GPGSA,A,3,09,08,27,16,07,23,,,,,,,1.86,1.59,0.96*0A
$GPRMC,185309.000,A,3745.5219,S,14459.9469,E,0.42,59.24,280116,,,A*40
$GPVTG,59.24,T,,M,0.42,N,0.78,K,A*0E
$GPGGA,185310.000,3745.5218,S,14459.9471,E,1,7,1.44,85.6,M,-3.9,M,,*68
$GPGSA,A,3,09,08,27,05,16,07,23,,,,,,1.67,1.44,0.85*0E
$GPRMC,185310.000,A,3745.5218,S,14459.9471,E,0.48,59.24,280116,,,A*4A
$GPVTG,59.24,T,,M,0.48,N,0.89,K,A*0A
$GPGGA,185311.000,3745.5217,S,14459.9472,E,1,6,1.59,85.6,M,-3.9,M,,*68
$GPGSA,A,3,09,08,27,16,07,23,,,,,,,1.86,1.59,0.96*0A
$GPRMC,185311.000,A,3745.5217,S,14459.9472,E,0.41,59.24,280116,,,A*4E
$GPVTG,59.24,T,,M,0.41,N,0.77,K,A*02
$GPGGA,185312.000,3745.5216,S,14459.9473,E,1,7,1.44,85.6,M,-3.9,M,,*66
$GPGSA,A,3,09,08,27,05,16,07,23,,,,,,1.67,1.44,0.85*0E
$GPGSV,3,1,12,09,82,132,20,07,62,236,19,23,47,063,36,42,46,359,*7C
$GPGSV,3,2,12,30,35,270,21,193,25,354,27,08,23,064,28,27,23,098,25*40
$GPGSV,3,3,12,16,22,139,20,05,09,218,13,28,05,331,,03,04,011,*78
$GPRMC,185312.000,A,3745.5216,S,14459.9473,E,0.25,59.24,280116,,,A*4F
$GPVTG,59.24,T,,M,0.25,N,0.46,K,A*02
$GPGGA,185313.000,3745.5216,S,14459.9473,E,1,6,1.59,85.6,M,-3.9,M,,*6A
$GPGSA,A,3,09,08,27,16,07,23,,,,,,,1.86,1.59,0.96*0A
$GPRMC,185313.000,A,3745.5216,S,14459.9473,E,0.24,59.24,280116,,,A*4F
$GPVTG,59.24,T,,M,0.24,N,0.45,K,A*00
$GPGGA,185314.000,3745.5215,S,14459.9474,E,1,7,1.44,85.6,M,-3.9,M,,*64
$GPGSA,A,3,09,08,27,05,16,07,23,,,,,,1.67,1.44,0.85*0E
$GPRMC,185314.000,A,3745.5215,S,14459.9474,E,0.19,59.24,280116,,,A*42
$GPVTG,59.24,T,,M,0.19,N,0.36,K,A*0A
$GPGGA,185315.000,3745.5215,S,14459.9474,E,1,7,1.44,85.6,M,-3.9,M,,*65
$GPGSA,A,3,09,08,27,05,16,07,23,,,,,,1.67,1.44,0.85*0E
$GPRMC,185315.000,A,3745.5215,S,14459.9474,E,0.21,59.24,280116,,,A*48
$GPVTG,59.24,T,,M,0.21,N,0.39,K,A*0E
$GPGGA,185316.000,3745.5214,S,14459.9475,E,1,7,1.44,85.6,M,-3.9,M,,*66
$GPGSA,A,3,09,08,27,05,16,07,23,,,,,,1.67,1.44,0.85*0E
$GPRMC,185316.000,A,3745.5214,S,14459.9475,E,0.32,59.24,280116,,,A*49
$GPVTG,59.24,T,,M,0.32,N,0.59,K,A*0A
$GPGGA,185317.000,3745.5214,S,14459.9476,E,1,7,1.44,85.6,M,-3.9,M,,*64
$GPGSA,A,3,09,08,27,05,16,07,23,,,,,,1.67,1.44,0.85*0E
$GPGSV,3,1,12,09,82,132,18,07,62,236,18,23,47,063,36,42,46,359,*76
$GPGSV,3,2,12,30,35,269,21,193,25,354,27,08,23,064,27,27,23,098,25*47
$GPGSV,3,3,12,16,22,139,20,05,09,218,15,28,05,331,,03,04,011,*7E
$GPRMC,185317.000,A,3745.5214,S,14459.9476,E,0.29,59.24,280116,,,A*41
$GPVTG,59.24,T,,M,0.29,N,0.53,K,A*0A
$GPGGA,185318.000,3745.5213,S,14459.9476,E,1,7,1.44,85.6,M,-3.9,M,,*6C
$GPGSA,A,3,09,08,27,05,16,07,23,,,,,,1.67,1.44,0.85*0E
$GPRMC,185318.000,A,3745.5213,S,14459.9476,E,0.14,59.24,280116,,,A*47
$GPVTG,59.24,T,,M,0.14,N,0.25,K,A*05
$GPGGA,185319.000,3745.5213,S,14459.9476,E,1,7,1.44,85.6,M,-3.9,M,,*6D
$GPGSA,A,3,09,08,27,05,16,07,23,,,,,,1.67,1.44,0.85*0E
$GPRMC,185319.000,A,3745.5213,S,14459.9476,E,0.10,59.24,280116,,,A*42
$GPVTG,59.24,T,,M,0.10,N,0.18,K,A*0F
$GPGGA,185320.000,3745.5213,S,14459.9476,E,1,7,1.44,85.6,M,-3.9,M,,*67
$GPGSA,A,3,09,08,27,05,16,07,23,,,,,,1.67,1.44,0.85*0E
$GPRMC,185320.000,A,3745.5213,S,14459.9476,E,0.16,59.24,280116,,,A*4E
$GPVTG,59.24,T,,M,0.16,N,0.29,K,A*0B
$GPGGA,185321.000,3745.5212,S,14459.9476,E,1,7,1.44,85.6,M,-3.9,M,,*67
$GPGSA,A,3,09,08,27,05,16,07,23,,,,,,1.67,1.44,0.85*0E
$GPRMC,185321.000,A,3745.5212,S,14459.9476,E,0.19,59.24,280116,,,A*41
$GPVTG,59.24,T,,M,0.19,N,0.35,K,A*09
$GPGGA,185322.000,3745.5212,S,14459.9476,E,1,7,1.61,85.6,M,-3.9,M,,*63
$GPGSA,A,3,09,08,27,05,16,07,23,,,,,,2.28,1.61,1.61*0A
$GPGSV,3,1,12,09,82,132,18,07,62,236,18,23,47,063,34,50,46,000,*78
$GPGSV,3,2,12,30,35,269,21,193,25,354,27,08,23,064,26,27,23,098,25*46
$GPGSV,3,3,12,16,22,139,19,05,09,218,13,28,05,331,,03,04,011,*72
$GPRMC,185322.000,A,3745.5212,S,14459.9476,E,0.19,59.24,280116,,,A*42
$GPVTG,59.24,T,,M,0.19,N,0.34,K,A*08
$GPGGA,185323.000,3745.5211,S,14459.9476,E,1,7,1.61,85.6,M,-3.9,M,,*61
$GPGSA,A,3,09,08,27,05,16,07,23,,,,,,2.28,1.61,1.61*0A
$GPRMC,185323.000,A,3745.5211,S,14459.9476,E,0.08,59.24,280116,,,A*40
$GPVTG,59.24,T,,M,0.08,N,0.15,K,A*0B
$GPGGA,185324.000,3745.5211,S,14459.9476,E,1,7,1.44,85.6,M,-3.9,M,,*61
$GPGSA,A,3,09,08,27,05,16,07,23,,,,,,1.67,1.44,0.85*0E
$GPRMC,185324.000,A,3745.5211,S,14459.9476,E,0.11,59.24,280116,,,A*4F
$GPVTG,59.24,T,,M,0.11,N,0.21,K,A*04
$GPGGA,185325.000,3745.5211,S,14459.9476,E,1,7,1.44,85.6,M,-3.9,M,,*60
$GPGSA,A,3,09,08,27,05,16,07,23,,,,,,1.67,1.44,0.85*0E
$GPRMC,185325.000,A,3745.5211,S,14459.9476,E,0.29,59.24,280116,,,A*45
$GPVTG,59.24,T,,M,0.29,N,0.53,K,A*0A
$GPGGA,185326.000,3745.5211,S,14459.9475,E,1,7,1.44,85.6,M,-3.9,M,,*60
$GPGSA,A,3,09,08,27,05,16,07,23,,,,,,1.67,1.44,0.85*0E
$GPRMC,185326.000,A,3745.5211,S,14459.9475,E,0.44,59.24,280116,,,A*4E
$GPVTG,59.24,T,,M,0.44,N,0.81,K,A*0E
$GPGGA,185327.000,3745.5211,S,14459.9473,E,1,7,1.44,85.6,M,-3.9,M,,*67
$GPGSA,A,3,09,08,27,05,16,07,23,,,,,,1.67,1.44,0.85*0E
$GPGSV,3,1,12,09,82,132,15,07,62,236,17,23,47,063,33,50,46,000,*7D
$GPGSV,3,2,12,30,35,269,21,193,25,354,27,08,23,064,26,27,23,098,25*46
$GPGSV,3,3,12,16,22,139,18,05,10,218,17,28,05,331,,03,04,011,*7F
$GPRMC,185327.000,A,3745.5211,S,14459.9473,E,0.45,59.24,280116,,,A*48
$GPVTG,59.24,T,,M,0.45,N,0.83,K,A*0D
$GPGGA,185328.000,3745.5211,S,14459.9471,E,1,7,1.44,85.6,M,-3.9,M,,*6A
$GPGSA,A,3,09,08,27,05,16,07,23,,,,,,1.67,1.44,0.85*0E
$GPRMC,185328.000,A,3745.5211,S,14459.9471,E,0.37,59.24,280116,,,A*40
$GPVTG,59.24,T,,M,0.37,N,0.69,K,A*0C
$GPGGA,185329.000,3745.5211,S,14459.9470,E,1,7,1.44,85.6,M,-3.9,M,,*6A
$GPGSA,A,3,09,08,27,05,16,07,23,,,,,,1.67,1.44,0.85*0E
$GPRMC,185329.000,A,3745.5211,S,14459.9470,E,0.41,59.24,280116,,,A*41
$GPVTG,59.24,T,,M,0.41,N,0.76,K,A*03
$GPGGA,185330.000,3745.5210,S,14459.9469,E,1,7,1.44,85.6,M,-3.9,M,,*6B
$GPGSA,A,3,09,08,27,05,16,07,23,,,,,,1.67,1.44,0.85*0E
$GPRMC,185330.000,A,3745.5210,S,14459.9469,E,0.43,59.24,280116,,,A*42
$GPVTG,59.24,T,,M,0.43,N,0.79,K,A*0E
$GPGGA,185331.000,3745.5209,S,14459.9468,E,1,7,1.44,85.6,M,-3.9,M,,*63
$GPGSA,A,3,09,08,27,05,16,07,23,,,,,,1.67,1.44,0.85*0E
$GPRMC,185331.000,A,3745.5209,S,14459.9468,E,0.46,59.24,280116,,,A*4F
$GPVTG,59.24,T,,M,0.46,N,0.85,K,A*08
$GPGGA,185332.000,3745.5208,S,14459.9467,E,1,7,1.44,85.6,M,-3.9,M,,*6E
$GPGSA,A,3,09,08,27,05,16,07,23,,,,,,1.67,1.44,0.85*0E
$GPGSV,3,1,12,09,82,130,15,07,62,236,17,23,47,063,32,30,35,269,21*72
$GPGSV,3,2,12,193,25,354,27,08,23,065,26,27,23,098,24,16,22,139,18*48
$GPGSV,3,3,12,05,10,218,16,28,05,331,,03,04,011,,34,,,*4C
$GPRMC,185332.000,A,3745.5208,S,14459.9467,E,0.44,59.24,280116,,,A*40
$GPVTG,59.24,T,,M,0.44,N,0.81,K,A*0E
$GPGGA,185333.000,3745.5207,S,14459.9466,E,1,7,1.44,85.6,M,-3.9,M,,*61
$GPGSA,A,3,09,08,27,05,16,07,23,,,,,,1.67,1.44,0.85*0E
$GPRMC,185333.000,A,3745.5207,S,14459.9466,E,0.39,59.24,280116,,,A*45
$GPVTG,59.24,T,,M,0.39,N,0.73,K,A*09
$GPGGA,185334.000,3745.5207,S,14459.9465,E,1,6,1.60,85.6,M,-3.9,M,,*62
$GPGSA,A,3,09,08,27,16,07,23,,,,,,,1.86,1.60,0.96*00
$GPRMC,185334.000,A,3745.5207,S,14459.9465,E,0.38,59.24,280116,,,A*40
$GPVTG,59.24,T,,M,0.38,N,0.70,K,A*0B
$GPGGA,185335.000,3745.5205,S,14459.9464,E,1,7,1.44,85.6,M,-3.9,M,,*67
$GPGSA,A,3,09,08,27,05,16,07,23,,,,,,1.67,1.44,0.85*0E
$GPRMC,185335.000,A,3745.5205,S,14459.9464,E,0.45,59.24,280116,,,A*48
$GPVTG,59.24,T,,M,0.45,N,0.83,K,A*0D
$GPGGA,185336.000,3745.5204,S,14459.9465,E,1,7,1.61,85.6,M,-3.9,M,,*63
$GPGSA,A,3,09,08,27,05,16,07,23,,,,,,2.28,1.61,1.61*0A
$GPRMC,185336.000,A,3745.5204,S,14459.9465,E,0.47,59.24,280116,,,A*49
$GPVTG,59.24,T,,M,0.47,N,0.87,K,A*0B
$GPGGA,185337.000,3745.5203,S,14459.9465,E,1,7,1.61,85.7,M,-3.9,M,,*64
$GPGSA,A,3,09,08,27,05,16,07,23,,,,,,2.28,1.61,1.61*0A
$GPGSV,3,1,12,09,82,130,16,07,62,236,17,23,47,063,32,30,35,269,21*71
$GPGSV,3,2,12,193,25,354,28,08,23,065,26,27,23,098,21,16,22,139,17*4D
$GPGSV,3,3,12,05,10,218,17,28,05,331,,03,04,011,,35,,,*4C
$GPRMC,185337.000,A,3745.5203,S,14459.9465,E,0.49,59.24,280116,,,A*41
$GPVTG,59.24,T,,M,0.49,N,0.92,K,A*01
$GPGGA,185338.000,3745.5202,S,14459.9465,E,1,6,2.48,85.7,M,-3.9,M,,*63
$GPGSA,A,3,09,08,27,16,07,23,,,,,,,4.24,2.48,3.44*08
$GPRMC,185338.000,A,3745.5202,S,14459.9465,E,0.49,59.24,280116,,,A*4F
$GPVTG,59.24,T,,M,0.49,N,0.91,K,A*02
$GPGGA,185339.000,3745.5200,S,14459.9466,E,1,7,1.44,85.7,M,-3.9,M,,*6D
$GPGSA,A,3,09,08,27,05,16,07,23,,,,,,1.67,1.44,0.85*0E
$GPRMC,185339.000,A,3745.5200,S,14459.9466,E,0.43,59.24,280116,,,A*45
$GPVTG,59.24,T,,M,0.43,N,0.80,K,A*08
$GPGGA,185340.000,3745.5199,S,14459.9466,E,1,7,1.44,85.7,M,-3.9,M,,*60
$GPGSA,A,3,09,08,27,05,16,07,23,,,,,,1.67,1.44,0.85*0E
$GPRMC,185340.000,A,3745.5199,S,14459.9466,E,0.35,59.24,280116,,,A*49
$GPVTG,59.24,T,,M,0.35,N,0.64,K,A*03
$GPGGA,185341.000,3745.5198,S,14459.9467,E,1,7,1.44,85.7,M,-3.9,M,,*61
$GPGSA,A,3,09,08,27,05,16,07,23,,,,,,1.67,1.44,0.85*0E
$GPRMC,185341.000,A,3745.5198,S,14459.9467,E,0.31,59.24,280116,,,A*4C
$GPVTG,59.24,T,,M,0.31,N,0.57,K,A*07
$GPGGA,185342.000,3745.5197,S,14459.9467,E,1,7,1.61,85.7,M,-3.9,M,,*6A
$GPGSA,A,3,09,08,27,05,16,07,23,,,,,,2.28,1.61,1.61*0A
$GPGSV,3,1,12,09,82,130,19,07,62,236,17,23,47,063,31,30,35,269,20*7C
$GPGSV,3,2,12,193,25,354,28,08,23,065,26,27,23,098,20,16,22,139,17*4C
$GPGSV,3,3,12,05,10,218,17,28,05,331,,03,04,011,,35,,,*4C
$GPRMC,185342.000,A,3745.5197,S,14459.9467,E,0.35,59.24,280116,,,A*44
$GPVTG,59.24,T,,M,0.35,N,0.64,K,A*03
$GPGGA,185343.000,3745.5196,S,14459.9467,E,1,7,1.44,85.7,M,-3.9,M,,*6D
$GPGSA,A,3,09,08,27,05,16,07,23,,,,,,1.67,1.44,0.85*0E
$GPRMC,185343.000,A,3745.5196,S,14459.9467,E,0.31,59.24,280116,,,A*40
$GPVTG,59.24,T,,M,0.31,N,0.57,K,A*07
$GPGGA,185344.000,3745.5196,S,14459.9467,E,1,7,1.61,85.7,M,-3.9,M,,*6D
$GPGSA,A,3,09,08,27,05,16,07,23,,,,,,2.28,1.61,1.62*09
$GPRMC,185344.000,A,3745.5196,S,14459.9467,E,0.31,59.24,280116,,,A*47
$GPVTG,59.24,T,,M,0.31,N,0.58,K,A*08
$GPGGA,185345.000,3745.5195,S,14459.9467,E,1,7,1.61,85.7,M,-3.9,M,,*6F
$GPGSA,A,3,09,08,27,05,16,07,23,,,,,,2.28,1.61,1.62*09
$GPRMC,185345.000,A,3745.5195,S,14459.9467,E,0.27,59.24,280116,,,A*42
$GPVTG,59.24,T,,M,0.27,N,0.50,K,A*07
$GPGGA,185346.000,3745.5194,S,14459.9467,E,1,7,1.61,85.7,M,-3.9,M,,*6D
$GPGSA,A,3,09,08,27,05,16,07,23,,,,,,2.28,1.61,1.62*09
$GPRMC,185346.000,A,3745.5194,S,14459.9467,E,0.19,59.24,280116,,,A*4D
$GPVTG,59.24,T,,M,0.19,N,0.35,K,A*09
$GPGGA,185347.000,3745.5194,S,14459.9467,E,1,7,1.44,85.7,M,-3.9,M,,*6B
$GPGSA,A,3,09,08,27,05,16,07,23,,,,,,1.67,1.44,0.85*0E
$GPGSV,3,1,12,09,82,130,22,07,62,236,17,23,47,063,31,30,35,269,20*74
$GPGSV,3,2,12,193,25,354,27,08,23,065,24,27,23,098,18,16,22,139,16*4B
$GPGSV,3,3,12,05,10,218,16,28,05,331,,03,04,011,,36,,,*4E
$GPRMC,185347.000,A,3745.5194,S,14459.9467,E,0.27,59.24,280116,,,A*41
$GPVTG,59.24,T,,M,0.27,N,0.51,K,A*06
$GPGGA,185348.000,3745.5193,S,14459.9466,E,1,6,1.60,85.7,M,-3.9,M,,*65
$GPGSA,A,3,09,08,27,16,07,23,,,,,,,1.86,1.60,0.96*00
$GPRMC,185348.000,A,3745.5193,S,14459.9466,E,0.21,59.24,280116,,,A*4E
$GPVTG,59.24,T,,M,0.21,N,0.38,K,A*0F
$GPGGA,185349.000,3745.5193,S,14459.9465,E,1,6,1.60,85.7,M,-3.9,M,,*67
$GPGSA,A,3,09,08,27,16,07,23,,,,,,,1.86,1.60,0.96*00
$GPRMC,185349.000,A,3745.5193,S,14459.9465,E,0.16,59.24,280116,,,A*48
$GPVTG,59.24,T,,M,0.16,N,0.29,K,A*0B
$GPGGA,185350.000,3745.5193,S,14459.9465,E,1,6,1.60,85.7,M,-3.9,M,,*6F
$GPGSA,A,3,09,08,27,16,07,23,,,,,,,1.86,1.60,0.96*00
$GPRMC,185350.000,A,3745.5193,S,14459.9465,E,0.13,59.24,280116,,,A*45
$GPVTG,59.24,T,,M,0.13,N,0.25,K,A*02
$GPGGA,185351.000,3745.5192,S,14459.9465,E,1,6,1.60,85.7,M,-3.9,M,,*6F
$GPGSA,A,3,09,08,27,16,07,23,,,,,,,1.86,1.60,0.96*00
$GPRMC,185351.000,A,3745.5192,S,14459.9465,E,0.18,59.24,280116,,,A*4E
$GPVTG,59.24,T,,M,0.18,N,0.34,K,A*09
$GPGGA,185352.000,3745.5192,S,14459.9465,E,1,6,2.49,85.7,M,-3.9,M,,*64
$GPGSA,A,3,09,08,27,16,07,23,,,,,,,4.27,2.49,3.46*08
$GPGSV,3,1,12,09,82,130,23,07,62,236,17,23,47,063,31,30,36,269,20*76
$GPGSV,3,2,12,193,25,354,27,08,23,065,24,27,23,098,18,16,22,139,16*4B
$GPGSV,3,3,12,05,10,218,16,28,05,331,,03,04,011,,38,,,*40
$GPRMC,185352.000,A,3745.5192,S,14459.9465,E,0.15,59.24,280116,,,A*40
$GPVTG,59.24,T,,M,0.15,N,0.28,K,A*09
$GPGGA,185353.000,3745.5192,S,14459.9466,E,1,6,1.60,85.7,M,-3.9,M,,*6E
$GPGSA,A,3,09,08,27,16,07,23,,,,,,,1.86,1.60,0.96*00
$GPRMC,185353.000,A,3745.5192,S,14459.9466,E,0.33,59.24,280116,,,A*46
$GPVTG,59.24,T,,M,0.33,N,0.61,K,A*00
$GPGGA,185354.000,3745.5191,S,14459.9467,E,1,7,1.44,85.7,M,-3.9,M,,*6C
$GPGSA,A,3,09,08,27,05,16,07,23,,,,,,1.67,1.44,0.85*0E
$GPRMC,185354.000,A,3745.5191,S,14459.9467,E,0.40,59.24,280116,,,A*47
$GPVTG,59.24,T,,M,0.40,N,0.73,K,A*07
$GPGGA,185355.000,3745.5191,S,14459.9469,E,1,7,1.44,85.7,M,-3.9,M,,*63
$GPGSA,A,3,09,08,27,05,16,07,23,,,,,,1.67,1.44,0.85*0E
$GPRMC,185355.000,A,3745.5191,S,14459.9469,E,0.23,59.24,280116,,,A*4D
$GPVTG,59.24,T,,M,0.23,N,0.43,K,A*01
$GPGGA,185356.000,3745.5192,S,14459.9469,E,1,7,1.44,85.7,M,-3.9,M,,*63
$GPGSA,A,3,09,08,27,05,16,07,23,,,,,,1.67,1.44,0.85*0E
$GPRMC,185356.000,A,3745.5192,S,14459.9469,E,0.35,59.24,280116,,,A*4A
$GPVTG,59.24,T,,M,0.35,N,0.64,K,A*03
$GPGGA,185357.000,3745.5193,S,14459.9469,E,1,7,1.44,85.7,M,-3.9,M,,*63
$GPGSA,A,3,09,08,27,05,16,07,23,,,,,,1.67,1.44,0.85*0E
$GPGSV,3,1,12,09,82,130,24,07,62,236,18,23,47,063,31,30,36,269,20*7E
$GPGSV,3,2,12,193,25,354,27,08,23,065,24,27,23,098,18,16,22,139,16*4B
$GPGSV,3,3,12,05,10,218,16,28,05,331,,03,04,011,,41,,,*4E
$GPRMC,185357.000,A,3745.5193,S,14459.9469,E,0.34,59.24,280116,,,A*4B
$GPVTG,59.24,T,,M,0.34,N,0.63,K,A*05
$GPGGA,185358.000,3745.5194,S,14459.9469,E,1,7,1.44,85.7,M,-3.9,M,,*6B
$GPGSA,A,3,09,08,27,05,16,07,23,,,,,,1.67,1.44,0.85*0E
$GPRMC,185358.000,A,3745.5194,S,14459.9469,E,0.35,59.24,280116,,,A*42
$GPVTG,59.24,T,,M,0.35,N,0.65,K,A*02
$GPGGA,185359.000,3745.5195,S,14459.9470,E,1,7,1.44,85.7,M,-3.9,M,,*63
$GPGSA,A,3,09,08,27,05,16,07,23,,,,,,1.67,1.44,0.85*0E
$GPRMC,185359.000,A,3745.5195,S,14459.9470,E,0.37,59.24,280116,,,A*48
$GPVTG,59.24,T,,M,0.37,N,0.68,K,A*0D
$GPGGA,185400.000,3745.5195,S,14459.9471,E,1,7,1.44,85.7,M,-3.9,M,,*69
$GPGSA,A,3,09,08,27,05,16,07,23,,,,,,1.67,1.44,0.85*0E
$GPRMC,185400.000,A,3745.5195,S,14459.9471,E,0.33,59.24,280116,,,A*46
$GPVTG,59.24,T,,M,0.33,N,0.62,K,A*03
$GPGGA,185401.000,3745.5196,S,14459.9471,E,1,7,1.44,85.7,M,-3.9,M,,*6B
$GPGSA,A,3,09,08,27,05,16,07,23,,,,,,1.67,1.44,0.85*0E
$GPRMC,185401.000,A,3745.5196,S,14459.9471,E,0.32,59.24,280116,,,A*45
$GPVTG,59.24,T,,M,0.32,N,0.60,K,A*00
$GPGGA,185402.000,3745.5197,S,14459.9471,E,1,7,1.44,85.7,M,-3.9,M,,*69
$GPGSA,A,3,09,08,27,05,16,07,23,,,,,,1.67,1.44,0.85*0E
$GPGSV,3,1,12,09,82,130,23,07,62,235,19,23,47,063,30,30,36,269,20*7A
$GPGSV,3,2,12,193,25,354,27,08,23,065,24,27,23,098,19,16,22,139,16*4A
$GPGSV,3,3,12,05,10,218,15,28,05,331,,03,04,011,,43,,,*4F
$GPRMC,185402.000,A,3745.5197,S,14459.9471,E,0.26,59.24,280116,,,A*42
$GPVTG,59.24,T,,M,0.26,N,0.49,K,A*0E
$GPGGA,185403.000,3745.5198,S,14459.9471,E,1,7,1.44,85.7,M,-3.9,M,,*67
$GPGSA,A,3,09,08,27,05,16,07,23,,,,,,1.67,1.44,0.85*0E
$GPRMC,185403.000,A,3745.5198,S,14459.9471,E,0.25,59.24,280116,,,A*4F
$GPVTG,59.24,T,,M,0.25,N,0.47,K,A*03
$GPGGA,185404.000,3745.5198,S,14459.9471,E,1,7,1.44,85.7,M,-3.9,M,,*60
$GPGSA,A,3,09,08,27,05,16,07,23,,,,,,1.67,1.44,0.85*0E
$GPRMC,185404.000,A,3745.5198,S,14459.9471,E,0.29,59.24,280116,,,A*44
$GPVTG,59.24,T,,M,0.29,N,0.55,K,A*0C
$GPGGA,185405.000,3745.5198,S,14459.9472,E,1,7,1.44,85.7,M,-3.9,M,,*62
$GPGSA,A,3,09,08,27,05,16,07,23,,,,,,1.67,1.44,0.85*0E
$GPRMC,185405.000,A,3745.5198,S,14459.9472,E,0.37,59.24,280116,,,A*49
$GPVTG,59.24,T,,M,0.37,N,0.68,K,A*0D
$GPGGA,185406.000,3745.5198,S,14459.9473,E,1,7,1.44,85.7,M,-3.9,M,,*60
$GPGSA,A,3,09,08,27,05,16,07,23,,,,,,1.67,1.44,0.85*0E
$GPRMC,185406.000,A,3745.5198,S,14459.9473,E,0.28,59.24,280116,,,A*45
$GPVTG,59.24,T,,M,0.28,N,0.53,K,A*0B
$GPGGA,185407.000,3745.5198,S,14459.9474,E,1,7,1.44,85.7,M,-3.9,M,,*66
$GPGSA,A,3,09,08,27,05,16,07,23,,,,,,1.67,1.44,0.85*0E
$GPGSV,3,1,12,09,82,128,22,07,62,235,19,23,47,063,29,30,36,269,20*7A
$GPGSV,3,2,12,193,25,354,27,08,23,065,24,27,23,098,21,16,22,139,16*41
$GPGSV,3,3,12,05,10,218,14,28,05,331,,03,04,011,,43,,,*4E
$GPRMC,185407.000,A,3745.5198,S,14459.9474,E,0.25,59.24,280116,,,A*4E
$GPVTG,59.24,T,,M,0.25,N,0.47,K,A*03
$GPGGA,185408.000,3745.5199,S,14459.9475,E,1,7,1.44,85.7,M,-3.9,M,,*69
$GPGSA,A,3,09,08,27,05,16,07,23,,,,,,1.67,1.44,0.85*0E
$GPRMC,185408.000,A,3745.5199,S,14459.9475,E,0.30,59.24,280116,,,A*45
$GPVTG,59.24,T,,M,0.30,N,0.55,K,A*04
$GPGGA,185409.000,3745.5199,S,14459.9476,E,1,7,1.44,85.7,M,-3.9,M,,*6B
$GPGSA,A,3,09,08,27,05,16,07,23,,,,,,1.67,1.44,0.85*0E
$GPRMC,185409.000,A,3745.5199,S,14459.9476,E,0.49,59.24,280116,,,A*49
$GPVTG,59.24,T,,M,0.49,N,0.91,K,A*02
$GPGGA,185410.000,3745.5199,S,14459.9478,E,1,7,1.44,85.7,M,-3.9,M,,*6D
$GPGSA,A,3,09,08,27,05,16,07,23,,,,,,1.67,1.44,0.85*0E
$GPRMC,185410.000,A,3745.5199,S,14459.9478,E,0.54,59.24,280116,,,A*43
$GPVTG,59.24,T,,M,0.54,N,1.00,K,A*07
$GPGGA,185411.000,3745.5200,S,14459.9480,E,1,7,1.44,85.7,M,-3.9,M,,*68
$GPGSA,A,3,09,08,27,05,16,07,23,,,,,,1.67,1.44,0.85*0E
$GPRMC,185411.000,A,3745.5200,S,14459.9480,E,0.55,59.24,280116,,,A*47
$GPVTG,59.24,T,,M,0.55,N,1.01,K,A*07
$GPGGA,185412.000,3745.5200,S,14459.9481,E,1,7,1.44,85.7,M,-3.9,M,,*6A
$GPGSA,A,3,09,08,27,05,16,07,23,,,,,,1.67,1.44,0.85*0E
$GPGSV,3,1,12,09,82,128,22,07,62,235,19,23,47,063,27,30,36,269,20*74
$GPGSV,3,2,12,193,25,354,27,08,23,065,25,27,23,098,21,16,21,139,16*43
$GPGSV,3,3,12,05,10,218,15,28,05,331,,03,04,011,,45,,,*49
$GPRMC,185412.000,A,3745.5200,S,14459.9481,E,0.70,96.21,280116,,,A*44
$GPVTG,96.21,T,,M,0.70,N,1.29,K,A*0C
$GPGGA,185413.000,3745.5196,S,14459.9481,E,1,7,1.44,85.7,M,-3.9,M,,*67
$GPGSA,A,3,09,08,27,05,16,07,23,,,,,,1.67,1.44,0.85*0E
$GPRMC,185413.000,A,3745.5196,S,14459.9481,E,0.69,86.78,280116,,,A*4C
$GPVTG,86.78,T,,M,0.69,N,1.28,K,A*08
$GPGGA,185414.000,3745.5195,S,14459.9480,E,1,7,1.44,85.7,M,-3.9,M,,*62
$GPGSA,A,3,09,08,27,05,16,07,23,,,,,,1.67,1.44,0.85*0E
$GPRMC,185414.000,A,3745.5195,S,14459.9480,E,0.64,88.70,280116,,,A*42
$GPVTG,88.70,T,,M,0.64,N,1.18,K,A*00
$GPGGA,185415.000,3745.5196,S,14459.9480,E,1,7,1.44,85.7,M,-3.9,M,,*60
$GPGSA,A,3,09,08,27,05,16,07,23,,,,,,1.67,1.44,0.85*0E
$GPRMC,185415.000,A,3745.5196,S,14459.9480,E,0.58,88.70,280116,,,A*4F
$GPVTG,88.70,T,,M,0.58,N,1.07,K,A*01
$GPGGA,185416.000,3745.5196,S,14459.9481,E,1,7,1.44,85.7,M,-3.9,M,,*62
$GPGSA,A,3,09,08,27,05,16,07,23,,,,,,1.67,1.44,0.85*0E
$GPRMC,185416.000,A,3745.5196,S,14459.9481,E,0.58,101.77,280116,,,A*7A
$GPVTG,101.77,T,,M,0.58,N,1.08,K,A*39
$GPGGA,185417.000,3745.5194,S,14459.9483,E,1,7,1.44,85.7,M,-3.9,M,,*63
$GPGSA,A,3,09,08,27,05,16,07,23,,,,,,1.67,1.44,0.85*0E
$GPGSV,3,1,12,09,82,128,22,07,62,235,19,23,47,063,27,30,36,269,22*76
$GPGSV,3,2,12,193,25,354,27,08,23,065,25,27,23,098,23,16,21,139,16*41
$GPGSV,3,3,12,05,10,218,14,28,05,331,,03,04,011,,46,,,*4B
$GPRMC,185417.000,A,3745.5194,S,14459.9483,E,0.63,100.87,280116,,,A*7D
$GPVTG,100.87,T,,M,0.63,N,1.17,K,A*31
$GPGGA,185418.000,3745.5190,S,14459.9484,E,1,7,1.44,85.7,M,-3.9,M,,*6F
$GPGSA,A,3,09,08,27,05,16,07,23,,,,,,1.67,1.44,0.85*0E
$GPRMC,185418.000,A,3745.5190,S,14459.9484,E,0.63,99.17,280116,,,A*49
$GPVTG,99.17,T,,M,0.63,N,1.16,K,A*08
$GPGGA,185419.000,3745.5187,S,14459.9485,E,1,7,1.44,85.7,M,-3.9,M,,*69
$GPGSA,A,3,09,08,27,05,16,07,23,,,,,,1.67,1.44,0.85*0E
$GPRMC,185419.000,A,3745.5187,S,14459.9485,E,0.67,77.10,280116,,,A*4C
$GPVTG,77.10,T,,M,0.67,N,1.24,K,A*0A
$GPGGA,185420.000,3745.5185,S,14459.9485,E,1,7,1.43,85.7,M,-3.9,M,,*66
$GPGSA,A,3,09,08,27,05,16,07,23,,,,,,1.67,1.43,0.85*09
$GPRMC,185420.000,A,3745.5185,S,14459.9485,E,0.71,77.43,280116,,,A*45
$GPVTG,77.43,T,,M,0.71,N,1.31,K,A*0F
$GPGGA,185421.000,3745.5186,S,14459.9487,E,1,7,1.44,85.7,M,-3.9,M,,*61
$GPGSA,A,3,09,08,27,05,16,07,23,,,,,,1.67,1.44,0.85*0E
$GPRMC,185421.000,A,3745.5186,S,14459.9487,E,0.71,78.07,280116,,,A*4A
$GPVTG,78.07,T,,M,0.71,N,1.31,K,A*00
$GPGGA,185422.000,3745.5186,S,14459.9489,E,1,7,1.44,85.8,M,-3.9,M,,*63
$GPGSA,A,3,09,08,27,05,16,07,23,,,,,,1.67,1.44,0.85*0E
$GPGSV,3,1,12,09,82,128,22,07,62,235,18,23,47,062,26,30,36,269,23*76
$GPGSV,3,2,12,193,25,354,28,08,23,065,24,27,23,098,22,16,21,139,16*4E
$GPGSV,3,3,12,05,10,218,15,28,05,331,,03,04,011,,46,,,*4A
$GPRMC,185422.000,A,3745.5186,S,14459.9489,E,0.72,84.79,280116,,,A*4E
$GPVTG,84.79,T,,M,0.72,N,1.34,K,A*0C
$GPGGA,185423.000,3745.5188,S,14459.9489,E,1,7,1.44,85.8,M,-3.9,M,,*6C
$GPGSA,A,3,09,08,27,05,16,07,23,,,,,,1.67,1.44,0.85*0E
$GPRMC,185423.000,A,3745.5188,S,14459.9489,E,0.72,93.23,280116,,,A*48
$GPVTG,93.23,T,,M,0.72,N,1.33,K,A*02
$GPGGA,185424.000,3745.5188,S,14459.9491,E,1,7,1.44,85.8,M,-3.9,M,,*62
$GPGSA,A,3,09,08,27,05,16,07,23,,,,,,1.67,1.44,0.85*0E
$GPRMC,185424.000,A,3745.5188,S,14459.9491,E,0.70,97.86,280116,,,A*4F
$GPVTG,97.86,T,,M,0.70,N,1.30,K,A*08
$GPGGA,185425.000,3745.5187,S,14459.9491,E,1,7,1.44,85.8,M,-3.9,M,,*6C
$GPGSA,A,3,09,08,27,05,16,07,23,,,,,,1.67,1.44,0.85*0E
$GPRMC,185425.000,A,3745.5187,S,14459.9491,E,0.68,96.86,280116,,,A*49
$GPVTG,96.86,T,,M,0.68,N,1.25,K,A*04
$GPGGA,185426.000,3745.5188,S,14459.9491,E,1,7,1.44,85.8,M,-3.9,M,,*60
$GPGSA,A,3,09,08,27,05,16,07,23,,,,,,1.67,1.44,0.85*0E
$GPRMC,185426.000,A,3745.5188,S,14459.9491,E,0.64,99.97,280116,,,A*46
$GPVTG,99.97,T,,M,0.64,N,1.19,K,A*08
$GPGGA,185427.000,3745.5189,S,14459.9490,E,1,7,1.44,85.9,M,-3.9,M,,*60
$GPGSA,A,3,09,08,27,05,16,07,23,,,,,,1.67,1.44,0.85*0E
$GPGSV,3,1,12,09,82,128,21,07,62,235,18,23,47,062,22,30,36,269,24*76
$GPGSV,3,2,12,193,25,354,28,08,23,065,24,27,23,098,22,16,21,139,16*4E
$GPGSV,3,3,12,05,10,218,13,28,05,331,,03,04,011,,47,,,*4D
$GPRMC,185427.000,A,3745.5189,S,14459.9490,E,0.59,99.97,280116,,,A*49
$GPVTG,99.97,T,,M,0.59,N,1.09,K,A*07
$GPGGA,185428.000,3745.5190,S,14459.9490,E,1,7,1.43,85.9,M,-3.9,M,,*60
$GPGSA,A,3,09,08,27,05,16,07,23,,,,,,1.67,1.43,0.85*09
$GPRMC,185428.000,A,3745.5190,S,14459.9490,E,0.54,99.97,280116,,,A*43
$GPVTG,99.97,T,,M,0.54,N,0.99,K,A*02
$GPGGA,185429.000,3745.5190,S,14459.9491,E,1,7,1.43,85.9,M,-3.9,M,,*60
$GPGSA,A,3,09,08,27,05,16,07,23,,,,,,1.67,1.43,0.85*09
$GPRMC,185429.000,A,3745.5190,S,14459.9491,E,0.49,99.97,280116,,,A*4F
$GPVTG,99.97,T,,M,0.49,N,0.91,K,A*06
$GPGGA,185430.000,3745.5192,S,14459.9493,E,1,7,1.44,85.9,M,-3.9,M,,*6F
$GPGSA,A,3,09,08,27,05,16,07,23,,,,,,1.67,1.44,0.85*0E
$GPRMC,185430.000,A,3745.5192,S,14459.9493,E,0.46,100.56,280116,,,A*74
$GPVTG,100.56,T,,M,0.46,N,0.85,K,A*30
$GPGGA,185431.000,3745.5193,S,14459.9494,E,1,7,1.43,85.9,M,-3.9,M,,*6F
$GPGSA,A,3,09,08,27,05,16,07,23,,,,,,1.67,1.43,0.85*09
$GPRMC,185431.000,A,3745.5193,S,14459.9494,E,0.49,100.28,280116,,,A*75
$GPVTG,100.28,T,,M,0.49,N,0.90,K,A*32
$GPGGA,185432.000,3745.5193,S,14459.9496,E,1,7,1.44,85.9,M,-3.9,M,,*69
$GPGSA,A,3,09,08,27,05,16,07,23,,,,,,1.67,1.44,0.85*0E
$GPGSV,3,1,12,09,82,128,20,07,62,235,18,23,47,062,21,30,36,269,25*75
$GPGSV,3,2,12,193,25,354,28,08,23,065,23,27,23,098,22,16,21,139,16*49
$GPGSV,3,3,12,05,10,218,12,28,05,331,,03,04,011,,49,,,*42
$GPRMC,185432.000,A,3745.5193,S,14459.9496,E,0.45,100.28,280116,,,A*78
$GPVTG,100.28,T,,M,0.45,N,0.83,K,A*3C
$GPGGA,185433.000,3745.5194,S,14459.9497,E,1,7,1.43,85.9,M,-3.9,M,,*69
$GPGSA,A,3,09,08,27,05,16,07,23,,,,,,1.67,1.43,0.85*09
$GPRMC,185433.000,A,3745.5194,S,14459.9497,E,0.49,100.28,280116,,,A*73
$GPVTG,100.28,T,,M,0.49,N,0.91,K,A*33
$GPGGA,185434.000,3745.5195,S,14459.9498,E,1,7,1.43,85.9,M,-3.9,M,,*60
$GPGSA,A,3,09,08,27,05,16,07,23,,,,,,1.67,1.43,0.85*09
$GPRMC,185434.000,A,3745.5195,S,14459.9498,E,0.48,100.28,280116,,,A*7B
$GPVTG,100.28,T,,M,0.48,N,0.89,K,A*3B
$GPGGA,185435.000,3745.5196,S,14459.9500,E,1,7,1.43,85.9,M,-3.9,M,,*62
$GPGSA,A,3,09,08,27,05,16,07,23,,,,,,1.67,1.43,0.85*09
$GPRMC,185435.000,A,3745.5196,S,14459.9500,E,0.51,100.28,280116,,,A*71
$GPVTG,100.28,T,,M,0.51,N,0.95,K,A*3E
$GPGGA,185436.000,3745.5196,S,14459.9501,E,1,7,1.44,85.9,M,-3.9,M,,*67
$GPGSA,A,3,09,08,27,05,16,07,23,,,,,,1.67,1.44,0.85*0E
$GPRMC,185436.000,A,3745.5196,S,14459.9501,E,0.56,100.28,280116,,,A*74
$GPVTG,100.28,T,,M,0.56,N,1.04,K,A*30
$GPGGA,185437.000,3745.5197,S,14459.9503,E,1,7,1.43,85.9,M,-3.9,M,,*62
$GPGSA,A,3,09,08,27,05,16,07,23,,,,,,1.67,1.43,0.85*09
$GPGSV,3,1,12,09,82,128,18,07,63,234,18,23,47,062,21,42,46,359,*79
$GPGSV,3,2,12,30,36,269,25,193,25,354,28,08,23,065,22,27,23,098,21*4F
$GPGSV,3,3,12,16,21,139,16,05,10,219,14,28,05,331,,03,03,011,*77
$GPRMC,185437.000,A,3745.5197,S,14459.9503,E,0.56,100.28,280116,,,A*76
$GPVTG,100.28,T,,M,0.56,N,1.04,K,A*30
$GPGGA,185438.000,3745.5198,S,14459.9504,E,1,7,1.44,85.9,M,-3.9,M,,*62
$GPGSA,A,3,09,08,27,05,16,07,23,,,,,,1.67,1.44,0.85*0E
$GPRMC,185438.000,A,3745.5198,S,14459.9504,E,0.51,100.28,280116,,,A*76
$GPVTG,100.28,T,,M,0.51,N,0.94,K,A*3F
$GPGGA,185439.000,3745.5199,S,14459.9505,E,1,7,1.44,85.9,M,-3.9,M,,*63
$GPGSA,A,3,09,08,27,05,16,07,23,,,,,,1.67,1.44,0.85*0E
$GPRMC,185439.000,A,3745.5199,S,14459.9505,E,0.54,100.28,280116,,,A*72
$GPVTG,100.28,T,,M,0.54,N,1.00,K,A*36
$GPGGA,185440.000,3745.5201,S,14459.9506,E,1,7,1.43,85.9,M,-3.9,M,,*6B
$GPGSA,A,3,09,08,27,05,16,07,23,,,,,,1.67,1.43,0.85*09
$GPRMC,185440.000,A,3745.5201,S,14459.9506,E,0.56,100.28,280116,,,A*7F
$GPVTG,100.28,T,,M,0.56,N,1.04,K,A*30
$GPGGA,185441.000,3745.5202,S,14459.9507,E,1,7,1.44,85.9,M,-3.9,M,,*6F
$GPGSA,A,3,09,08,27,05,16,07,23,,,,,,1.67,1.44,0.85*0E
$GPRMC,185441.000,A,3745.5202,S,14459.9507,E,0.52,100.28,280116,,,A*78
$GPVTG,100.28,T,,M,0.52,N,0.96,K,A*3E
$GPGGA,185442.000,3745.5204,S,14459.9508,E,1,7,1.43,85.9,M,-3.9,M,,*62
$GPGSA,A,3,09,08,27,05,16,07,23,,,,,,1.67,1.43,0.85*09
$GPGSV,3,1,12,09,82,126,18,07,63,234,18,23,47,062,22,42,46,359,*74
$GPGSV,3,2,12,30,36,269,25,193,25,354,28,08,23,065,21,27,23,098,21*4C
$GPGSV,3,3,12,16,21,139,16,05,10,219,16,28,05,331,,03,03,011,*75
$GPRMC,185442.000,A,3745.5204,S,14459.9508,E,0.52,100.28,280116,,,A*72
$GPVTG,100.28,T,,M,0.52,N,0.97,K,A*3F
$GPGGA,185443.000,3745.5205,S,14459.9508,E,1,7,1.44,85.9,M,-3.9,M,,*65
$GPGSA,A,3,09,08,27,05,16,07,23,,,,,,1.67,1.44,0.85*0E
$GPRMC,185443.000,A,3745.5205,S,14459.9508,E,0.52,100.28,280116,,,A*72
$GPVTG,100.28,T,,M,0.52,N,0.96,K,A*3E
$GPGGA,185444.000,3745.5206,S,14459.9508,E,1,7,1.44,85.9,M,-3.9,M,,*61
$GPGSA,A,3,09,08,27,05,16,07,23,,,,,,1.67,1.44,0.85*0E
$GPRMC,185444.000,A,3745.5206,S,14459.9508,E,0.53,100.28,280116,,,A*77
$GPVTG,100.28,T,,M,0.53,N,0.98,K,A*31
$GPGGA,185445.000,3745.5208,S,14459.9508,E,1,7,1.44,85.9,M,-3.9,M,,*6E
$GPGSA,A,3,09,08,27,05,16,07,23,,,,,,1.67,1.44,0.85*0E
$GPRMC,185445.000,A,3745.5208,S,14459.9508,E,0.57,100.28,280116,,,A*7C
$GPVTG,100.28,T,,M,0.57,N,1.06,K,A*33
$GPGGA,185446.000,3745.5210,S,14459.9507,E,1,7,1.44,85.9,M,-3.9,M,,*6B
$GPGSA,A,3,09,08,27,05,16,07,23,,,,,,1.67,1.44,0.85*0E
$GPRMC,185446.000,A,3745.5210,S,14459.9507,E,0.50,100.28,280116,,,A*7E
$GPVTG,100.28,T,,M,0.50,N,0.92,K,A*38
$GPGGA,185447.000,3745.5211,S,14459.9507,E,1,7,1.43,85.9,M,-3.9,M,,*6C
$GPGSA,A,3,09,08,27,05,16,07,23,,,,,,1.67,1.43,0.85*09
$GPGSV,3,1,12,09,82,126,18,07,63,234,19,23,47,062,24,42,46,359,*73
$GPGSV,3,2,12,30,36,269,25,193,25,354,28,08,23,065,21,27,23,098,20*4D
$GPGSV,3,3,12,16,21,139,16,05,10,219,16,28,05,331,,03,03,011,*75
$GPRMC,185447.000,A,3745.5211,S,14459.9507,E,0.38,100.28,280116,,,A*70
$GPVTG,100.28,T,,M,0.38,N,0.71,K,A*3B
$GPGGA,185448.000,3745.5212,S,14459.9507,E,1,7,1.43,85.9,M,-3.9,M,,*60
$GPGSA,A,3,09,08,27,05,16,07,23,,,,,,1.67,1.43,0.85*09
$GPRMC,185448.000,A,3745.5212,S,14459.9507,E,0.30,100.28,280116,,,A*74
$GPVTG,100.28,T,,M,0.30,N,0.56,K,A*36
$GPGGA,185449.000,3745.5213,S,14459.9507,E,1,7,1.44,85.9,M,-3.9,M,,*67
$GPGSA,A,3,09,08,27,05,16,07,23,,,,,,1.67,1.44,0.85*0E
$GPRMC,185449.000,A,3745.5213,S,14459.9507,E,0.26,100.28,280116,,,A*73
$GPVTG,100.28,T,,M,0.26,N,0.48,K,A*3E
$GPGGA,185450.000,3745.5213,S,14459.9507,E,1,7,1.43,85.9,M,-3.9,M,,*68
$GPGSA,A,3,09,08,27,05,16,07,23,,,,,,1.67,1.43,0.85*09
$GPRMC,185450.000,A,3745.5213,S,14459.9507,E,0.29,100.28,280116,,,A*74
$GPVTG,100.28,T,,M,0.29,N,0.53,K,A*3B
$GPGGA,185451.000,3745.5214,S,14459.9507,E,1,7,1.43,85.9,M,-3.9,M,,*6E
$GPGSA,A,3,09,08,27,05,16,07,23,,,,,,1.67,1.43,0.85*09
$GPRMC,185451.000,A,3745.5214,S,14459.9507,E,0.34,100.28,280116,,,A*7E
$GPVTG,100.28,T,,M,0.34,N,0.64,K,A*33
$GPGGA,185452.000,3745.5215,S,14459.9507,E,1,7,1.43,85.9,M,-3.9,M,,*6C
$GPGSA,A,3,09,08,27,05,16,07,23,,,,,,1.67,1.43,0.85*09
$GPGSV,3,1,12,09,82,126,20,07,63,234,19,23,47,062,24,42,46,359,*78
$GPGSV,3,2,12,30,36,269,25,193,25,354,28,08,23,065,20,27,23,098,20*4C
$GPGSV,3,3,12,16,21,139,16,05,10,219,15,28,05,331,,03,03,011,*76
$GPRMC,185452.000,A,3745.5215,S,14459.9507,E,0.31,100.28,280116,,,A*79
$GPVTG,100.28,T,,M,0.31,N,0.57,K,A*36
$GPGGA,185453.000,3745.5216,S,14459.9507,E,1,7,1.44,85.9,M,-3.9,M,,*69
$GPGSA,A,3,09,08,27,05,16,07,23,,,,,,1.67,1.44,0.85*0E
$GPRMC,185453.000,A,3745.5216,S,14459.9507,E,0.35,100.28,280116,,,A*7F
$GPVTG,100.28,T,,M,0.35,N,0.64,K,A*32
$GPGGA,185454.000,3745.5217,S,14459.9508,E,1,7,1.43,85.9,M,-3.9,M,,*67
$GPGSA,A,3,09,08,27,05,16,07,23,,,,,,1.67,1.43,0.85*09
$GPRMC,185454.000,A,3745.5217,S,14459.9508,E,0.45,100.28,280116,,,A*71
$GPVTG,100.28,T,,M,0.45,N,0.84,K,A*3B
$GPGGA,185455.000,3745.5218,S,14459.9509,E,1,7,1.44,85.9,M,-3.9,M,,*6F
$GPGSA,A,3,09,08,27,05,16,07,23,,,,,,1.67,1.44,0.85*0E
$GPRMC,185455.000,A,3745.5218,S,14459.9509,E,0.54,100.28,280116,,,A*7E
$GPVTG,100.28,T,,M,0.54,N,0.99,K,A*37
$GPGGA,185456.000,3745.5220,S,14459.9510,E,1,7,1.43,85.9,M,-3.9,M,,*68
$GPGSA,A,3,09,08,27,05,16,07,23,,,,,,1.67,1.43,0.85*09
$GPRMC,185456.000,A,3745.5220,S,14459.9510,E,0.53,100.28,280116,,,A*79
$GPVTG,100.28,T,,M,0.53,N,0.99,K,A*30
$GPGGA,185457.000,3745.5221,S,14459.9510,E,1,7,1.43,85.9,M,-3.9,M,,*68
$GPGSA,A,3,09,08,27,05,16,07,23,,,,,,1.67,1.43,0.85*09
$GPGSV,3,1,12,09,82,126,22,07,63,234,18,23,47,062,24,50,46,000,*77
$GPGSV,3,2,12,30,36,269,25,193,25,354,28,08,23,065,20,27,23,099,19*47
$GPGSV,3,3,12,16,21,139,16,05,10,219,16,28,05,331,,03,03,011,*75
$GPRMC,185457.000,A,3745.5221,S,14459.9510,E,0.60,135.34,280116,,,A*72
$GPVTG,135.34,T,,M,0.60,N,1.11,K,A*3A
$GPGGA,185458.000,3745.5222,S,14459.9516,E,1,7,1.43,85.9,M,-3.9,M,,*62
$GPGSA,A,3,09,08,27,05,16,07,23,,,,,,1.67,1.43,0.85*09
$GPRMC,185458.000,A,3745.5222,S,14459.9516,E,0.82,114.26,280116,,,A*74
$GPVTG,114.26,T,,M,0.82,N,1.52,K,A*31
$GPGGA,185459.000,3745.5226,S,14459.9523,E,1,7,1.43,85.9,M,-3.9,M,,*61
$GPGSA,A,3,09,08,27,05,16,07,23,,,,,,1.67,1.43,0.85*09
$GPRMC,185459.000,A,3745.5226,S,14459.9523,E,1.09,109.62,280116,,,A*79
$GPVTG,109.62,T,,M,1.09,N,2.02,K,A*39
$GPGGA,185500.000,3745.5231,S,14459.9525,E,1,7,1.43,86.0,M,-3.9,M,,*66
$GPGSA,A,3,09,08,27,05,16,07,23,,,,,,1.67,1.43,0.85*09
$GPRMC,185500.000,A,3745.5231,S,14459.9525,E,1.05,110.73,280116,,,A*70
$GPVTG,110.73,T,,M,1.05,N,1.94,K,A*31
$GPGGA,185501.000,3745.5235,S,14459.9525,E,1,7,1.43,86.0,M,-3.9,M,,*63
$GPGSA,A,3,09,08,27,05,16,07,23,,,,,,1.67,1.43,0.85*09
$GPRMC,185501.000,A,3745.5235,S,14459.9525,E,0.87,112.98,280116,,,A*79
$GPVTG,112.98,T,,M,0.87,N,1.62,K,A*34
$GPGGA,185502.000,3745.5238,S,14459.9525,E,1,7,1.43,86.0,M,-3.9,M,,*6D
$GPGSA,A,3,09,08,27,05,16,07,23,,,,,,1.67,1.43,0.85*09
$GPGSV,3,1,12,09,82,126,22,07,63,234,18,23,47,062,26,50,46,000,*75
$GPGSV,3,2,12,30,36,269,25,193,25,354,28,08,23,065,20,27,23,099,19*47
$GPGSV,3,3,12,16,21,139,16,05,10,219,16,28,06,331,,03,03,011,*76
$GPRMC,185502.000,A,3745.5238,S,14459.9525,E,0.82,147.82,280116,,,A*79
$GPVTG,147.82,T,,M,0.82,N,1.53,K,A*38
$GPGGA,185503.000,3745.5242,S,14459.9527,E,1,7,1.43,86.0,M,-3.9,M,,*63
$GPGSA,A,3,09,08,27,05,16,07,23,,,,,,1.67,1.43,0.85*09
$GPRMC,185503.000,A,3745.5242,S,14459.9527,E,0.80,147.24,280116,,,A*79
$GPVTG,147.24,T,,M,0.80,N,1.47,K,A*33
$GPGGA,185504.000,3745.5245,S,14459.9529,E,1,7,1.43,86.0,M,-3.9,M,,*6D
$GPGSA,A,3,09,08,27,05,16,07,23,,,,,,1.67,1.43,0.85*09
$GPRMC,185504.000,A,3745.5245,S,14459.9529,E,0.80,144.84,280116,,,A*7E
$GPVTG,144.84,T,,M,0.80,N,1.49,K,A*34
$GPGGA,185505.000,3745.5248,S,14459.9530,E,1,7,1.43,86.0,M,-3.9,M,,*69
$GPGSA,A,3,09,08,27,05,16,07,23,,,,,,1.67,1.43,0.85*09
$GPRMC,185505.000,A,3745.5248,S,14459.9530,E,0.82,145.84,280116,,,A*79
$GPVTG,145.84,T,,M,0.82,N,1.52,K,A*3D
$GPGGA,185506.000,3745.5252,S,14459.9532,E,1,7,1.43,85.9,M,-3.9,M,,*69
$GPGSA,A,3,09,08,27,05,16,07,23,,,,,,1.67,1.43,0.85*09
$GPRMC,185506.000,A,3745.5252,S,14459.9532,E,0.84,149.16,280116,,,A*72
$GPVTG,149.16,T,,M,0.84,N,1.55,K,A*3B
$GPGGA,185507.000,3745.5254,S,14459.9534,E,1,7,1.43,85.9,M,-3.9,M,,*68
$GPGSA,A,3,09,08,27,05,16,07,23,,,,,,1.67,1.43,0.85*09
$GPGSV,3,1,12,09,82,126,21,07,63,234,18,23,47,062,26,30,36,269,24*7C
$GPGSV,3,2,12,193,25,354,28,08,23,065,19,27,23,099,19,16,21,139,16*49
$GPGSV,3,3,12,05,10,219,16,28,06,331,,03,03,011,,34,,,*49
$GPRMC,185507.000,A,3745.5254,S,14459.9534,E,0.83,154.65,280116,,,A*7C
$GPVTG,154.65,T,,M,0.83,N,1.53,K,A*32
